     3.04           OBSERVATION DATA    M (MIXED)           RINEX VERSION / TYPE
sbf2rin-15.9.0                          20240301 000147 UTC PGM / RUN BY / DATE
gfzrnx-1.13-7761    FILE PROCESSING     20240301 000155 UTC COMMENT
AL2H00CAN                                                   MARKER NAME
40129M003                                                   MARKER NUMBER
PGC-WCDA            GEOL. SURV. CANADA                      OBSERVER / AGENCY
3016127             SEPT POLARX5        5.3.2               REC # / TYPE / VERS
5112354071          TRM59800.00     SCIS                    ANT # / TYPE
        0.1000        0.0000        0.0000                  ANTENNA: DELTA H/E/N
 -2341332.8840 -3539049.5090  4745791.3600                  APPROX POSITION XYZ
C   15 C1P C2I C5P C6I C7I L1P L2I L5P L6I L7I S1P S2I S5P  SYS / # / OBS TYPES
       S6I S7I                                              SYS / # / OBS TYPES
E   15 C1C C5Q C6C C7Q C8Q L1C L5Q L6C L7Q L8Q S1C S5Q S6C  SYS / # / OBS TYPES
       S7Q S8Q                                              SYS / # / OBS TYPES
G   17 C1C C1L C1W C2L C2W C5Q L1C L1L L2L L2W L5Q S1C S1L  SYS / # / OBS TYPES
       S1W S2L S2W S5Q                                      SYS / # / OBS TYPES
R   15 C1C C1P C2C C2P C3Q L1C L1P L2C L2P L3Q S1C S1P S2C  SYS / # / OBS TYPES
       S2P S3Q                                              SYS / # / OBS TYPES
Contact pac_gps@nrcan-rncan.gc.ca for additional info.      COMMENT
The data subject to the Open Government Licence - Canada    COMMENT
at https://open.canada.ca/en/open-government-licence-canada COMMENT
Geodetic                                                    MARKER TYPE
SEPTENTRIO RECEIVERS OUTPUT ALIGNED CARRIER PHASES.         COMMENT
NO FURTHER PHASE SHIFT APPLIED IN THE RINEX ENCODER.        COMMENT
G L1C                                                       SYS / PHASE SHIFT
G L2W                                                       SYS / PHASE SHIFT
G L2L  0.00000                                              SYS / PHASE SHIFT
G L5Q  0.00000                                              SYS / PHASE SHIFT
G L1L  0.00000                                              SYS / PHASE SHIFT
E L1C  0.00000                                              SYS / PHASE SHIFT
E L6C  0.00000                                              SYS / PHASE SHIFT
E L5Q  0.00000                                              SYS / PHASE SHIFT
E L7Q  0.00000                                              SYS / PHASE SHIFT
E L8Q  0.00000                                              SYS / PHASE SHIFT
R L1C                                                       SYS / PHASE SHIFT
R L1P  0.00000                                              SYS / PHASE SHIFT
R L2P  0.00000                                              SYS / PHASE SHIFT
R L2C                                                       SYS / PHASE SHIFT
R L3Q  0.00000                                              SYS / PHASE SHIFT
C L1P  0.00000                                              SYS / PHASE SHIFT
C L5P  0.00000                                              SYS / PHASE SHIFT
C L2I                                                       SYS / PHASE SHIFT
C L7I                                                       SYS / PHASE SHIFT
C L6I                                                       SYS / PHASE SHIFT
 C1C    0.000 C1P    0.000 C2C    0.000 C2P    0.000        GLONASS COD/PHS/BIS
DBHZ                                                        SIGNAL STRENGTH UNIT
    18                                                      LEAP SECONDS
 12 R02 -4 R03  5 R04  6 R05  1 R09 -2 R10 -7 R11  0 R12 -1 GLONASS SLOT / FRQ #
    R19  3 R20  2 R21  4 R22 -3                             GLONASS SLOT / FRQ #
    43                                                      # OF SATELLITES
   C06         120         120   120         120         120PRN / # OF OBS
         120         120         120   120                  PRN / # OF OBS
   C12         120         120   120         120         120PRN / # OF OBS
         120         120         120   120                  PRN / # OF OBS
   C16         120         120   120         120         120PRN / # OF OBS
         120         120         120   120                  PRN / # OF OBS
   C19   120   120   120   120         120   120   120   120PRN / # OF OBS
               120   120   120   120                        PRN / # OF OBS
   C20   120   120   120   120         120   120   120   120PRN / # OF OBS
               120   120   120   120                        PRN / # OF OBS
   C22     6    11    11    11           6    11    11    11PRN / # OF OBS
                 6    11    11    11                        PRN / # OF OBS
   C24   120   120   120   120         120   120   120   120PRN / # OF OBS
               120   120   120   120                        PRN / # OF OBS
   C25   101   102   102   102         101   102   102   102PRN / # OF OBS
               101   102   102   102                        PRN / # OF OBS
   C26   120   120   120   120         120   120   120   120PRN / # OF OBS
               120   120   120   120                        PRN / # OF OBS
   C29    87    92    91    90          87    88    91    89PRN / # OF OBS
                87    92    91    90                        PRN / # OF OBS
   C34   119   120   120   120         119   120   120   120PRN / # OF OBS
               119   120   120   120                        PRN / # OF OBS
   C35   120   120   120   120         120   120   120   120PRN / # OF OBS
               120   120   120   120                        PRN / # OF OBS
   E04     6    10                                          PRN / # OF OBS
                 6    10                                    PRN / # OF OBS
   E13   120   120   120   120   120   120   120   120   120PRN / # OF OBS
         120   120   120   120   120   120                  PRN / # OF OBS
   E15   120   120   120   120   120   120   120   120   120PRN / # OF OBS
         120   120   120   120   120   120                  PRN / # OF OBS
   E18     5     7     6     5     6     3     5     6     5PRN / # OF OBS
           6     5     7     6     5     6                  PRN / # OF OBS
   E21   120   120   120   120   120   120   120   120   120PRN / # OF OBS
         120   120   120   120   120   120                  PRN / # OF OBS
   E26   120   120   120   120   120   120   120   120   120PRN / # OF OBS
         120   120   120   120   120   120                  PRN / # OF OBS
   E27   120   120   120   120   120   120   120   120   120PRN / # OF OBS
         120   120   120   120   120   120                  PRN / # OF OBS
   E30     1     8     5     6     8                 5     6PRN / # OF OBS
           8     1     8     5     6     8                  PRN / # OF OBS
   E34     1     7           2     5           4           2PRN / # OF OBS
           5     1     7           2     5                  PRN / # OF OBS
   G05    76          75    75    75          76          75PRN / # OF OBS
          75          76          75    75    75            PRN / # OF OBS
   G06   120         120   120   120   120   120         120PRN / # OF OBS
         120   120   120         120   120   120   120      PRN / # OF OBS
   G11   120   120   120   120   120   120   120   120   120PRN / # OF OBS
         120   120   120   120   120   120   120   120      PRN / # OF OBS
   G12   120         120   120   120         120         120PRN / # OF OBS
         120         120         120   120   120            PRN / # OF OBS
   G19   118         108         108         110            PRN / # OF OBS
         108         118         108         108            PRN / # OF OBS
   G20   120         120         120         120            PRN / # OF OBS
         120         120         120         120            PRN / # OF OBS
   G24   100          92   103    92   102    92          93PRN / # OF OBS
          92   102   100          92   103    92   102      PRN / # OF OBS
   G25   120         120   120   120   120   120         120PRN / # OF OBS
         120   120   120         120   120   120   120      PRN / # OF OBS
   G28   117   101    89   117    89   118    91   101   106PRN / # OF OBS
          89   118   117   101    89   117    89   118      PRN / # OF OBS
   G29   120         120   120   120         120         120PRN / # OF OBS
         120         120         120   120   120            PRN / # OF OBS
   R02     4           3                 1                  PRN / # OF OBS
                 4           3                              PRN / # OF OBS
   R03   118   115   120   113         114   114   114   112PRN / # OF OBS
               118   115   120   113                        PRN / # OF OBS
   R04   101    95   100    99   104   101    95   100    95PRN / # OF OBS
         104   101    95   100    99   104                  PRN / # OF OBS
   R05    31    30    31    27    30    31    30    31    27PRN / # OF OBS
          30    31    30    31    27    30                  PRN / # OF OBS
   R09   120   120   120   120   120   120   120   120   120PRN / # OF OBS
         120   120   120   120   120   120                  PRN / # OF OBS
   R10   120   120                     120   120            PRN / # OF OBS
               120   120                                    PRN / # OF OBS
   R11   120   120   120   120   120   120   120   120   120PRN / # OF OBS
         120   120   120   120   120   120                  PRN / # OF OBS
   R12    26    19    15    10    10    16    16     8     7PRN / # OF OBS
          10    26    19    15    10    10                  PRN / # OF OBS
   R19   120   110   120   120         111   110   114   114PRN / # OF OBS
               120   110   120   120                        PRN / # OF OBS
   R20   120   120   120   120         120   120   120   120PRN / # OF OBS
               120   120   120   120                        PRN / # OF OBS
   R21   120   120   120   120   120   120   120   120   120PRN / # OF OBS
         120   120   120   120   120   120                  PRN / # OF OBS
   R22    11    10    10    10    11    11    10    10    10PRN / # OF OBS
          11    11    10    10    10    11                  PRN / # OF OBS
    30.000                                                  INTERVAL
  2024     2    29    23     0    0.0000000     GPS         TIME OF FIRST OBS
  2024     2    29    23    59   30.0000000     GPS         TIME OF LAST OBS
                                                            END OF HEADER
> 2024 02 29 23 00 00.0000000  0 36
C06                  40647371.143 6                  40647375.635 6  40647377.097 6                 211661525.83906                 171992364.34706 163670165.18906                        36.500                          36.250          38.250
C12                  24232543.289 7                  24232547.427 7  24232548.393 7                 126185305.62107                 102535981.22807  97574580.46907                        44.250                          46.250          47.500
C16                  40555890.311 6                  40555899.275 6  40555901.394 6                 211185191.54006                 171605308.27706 163301844.32306                        37.000                          36.500          36.250
C19  27255088.578 4  27255088.743 5  27255103.128 5  27255095.990 6                 143226445.98304 141924392.92405 106954884.69205 115325237.57106                        29.500          33.500          34.500          36.000
C20  26428177.632 5  26428177.444 6  26428190.403 6  26428185.366 6                 138881030.37805 137618485.24606 103709930.30806 111826325.65906                        32.500          36.250          36.750          40.750
C24  22119740.870 8  22119738.603 8  22119743.566 8  22119742.612 8                 116240120.79808 115183375.91308  86802742.58708  93595982.27108                        50.250          52.250          52.250          53.750
C26  22858155.133 8  22858153.135 8  22858161.640 8  22858159.858 8                 120120449.34708 119028439.13808  89700374.41008  96720404.69708                        48.000          50.750          48.500          50.750
C29  25481798.800 6  25481797.079 6  25481808.123 6  25481804.831 6                 133907798.69806 132690453.05306  99996149.39106 107821913.81706                        37.500          40.000          39.250          40.750
C34                  26801519.624 5  26801539.263 5  26801534.741 5                                 139562549.96005 105175000.61405 113406060.76605                                        31.500          30.250          33.250
C35  21579821.280 8  21579819.286 8  21579826.744 8  21579824.869 8                 113402873.06008 112371931.77608  84684079.65908  91311489.46008                        49.500          52.500          50.500          53.500
E04  28574808.745 3  28574819.768 4                                                                                                                                        22.500          24.250
E13  23885684.362 8  23885692.075 8  23885687.031 8  23885688.558 8  23885690.062 9 125520328.46508  93732872.10808 101883490.30408  96178046.17208  94955467.71509        49.000          51.000          53.250          52.750          54.750
E15  24344398.145 7  24344405.778 8  24344401.369 8  24344402.399 8  24344403.863 8 127930836.33207  95532900.58808 103840052.84208  98025042.55808  96778977.64808        47.750          49.750          52.000          51.250          53.500
E18  22302712.609 4  22302727.429 4  22302720.225 4  22302723.151 4  22302725.066 5 117201478.92804  87520613.15704  95131087.59804  89803740.83404  88662187.07105        25.500          26.750          27.000          28.000          30.250
E21  23684441.908 8  23684448.360 8  23684446.004 9  23684445.022 8  23684446.490 9 124462674.66608  92942980.44608 101024945.77709  95367565.03608  94155279.31509        49.250          52.000          54.500          53.750          55.750
E26  27458214.162 6  27458230.349 6  27458223.155 6  27458225.088 6  27458227.571 7 144293909.76306 107752025.51006 117121743.38506 110562931.16306 109157487.91307        38.500          40.500          38.000          41.000          43.750
E27  24435567.887 8  24435575.118 8  24435572.609 8  24435571.976 8  24435573.301 8 128409790.28208  95890466.53208 104228751.29308  98391947.59008  97141212.13408        48.000          49.250          51.250          51.000          53.250
E30  28779631.717 3  28779649.152 4  28779640.450 4  28779644.427 4  28779646.459 4                                 122757910.35404 115883453.88604 114410363.26004        22.750          25.250          28.750          27.500          29.250
E34                  28344862.337 4                  28344859.200 4  28344860.212 4                 111231374.01704                 114133044.98404 112682217.08304                        26.250                          26.000          29.000
G06  21247124.325 8                  21247124.223 6  21247129.601 7  21247129.042 6  21247130.602 8 111654575.71608                  87003679.75407  87003677.75506  83378552.18408        48.000                          41.500          46.750          41.500          51.250
G11  20765576.507 8  20765576.586 8  20765576.297 7  20765578.362 8  20765578.116 7  20765583.128 9 109124065.86808 109124054.86508  85031864.39908  85031862.39207  81488907.18009        49.500          49.000          44.250          50.000          44.250          54.500
G12  20216234.192 8                  20216233.844 8  20216234.978 8  20216234.536 8                 106237128.52908                  82782233.49508  82782227.49408                        51.250                          48.000          48.750          48.000
G19  23074478.095 6                  23074476.839 4                  23074480.809 4                 121257267.65306                                  94486230.83004                        40.000                          26.000                          26.000
G20  23718594.373 6                  23718593.291 3                  23718600.038 3                 124642136.50406                                  97123790.96803                        38.750                          20.000                          20.000
G24  23851771.716 6                  23851771.493 4  23851782.067 6  23851781.808 4  23851784.155 7 125341848.07906                  97668989.08906  97668979.08104  93599451.66707        39.000                          26.500          41.000          26.500          45.000
G25  21294942.870 7                  21294942.106 6  21294948.624 7  21294947.654 6  21294949.661 8 111905778.57607                  87199364.41807  87199369.40806  83566086.54808        47.500                          39.000          44.750          39.000          50.500
G28                                                  24687539.430 5                  24687546.982 5                                 101091347.86505                  96879244.47505                                                        30.250                          35.750
G29  24625686.660 6                  24625686.276 4  24625694.852 5  24625694.610 4                 129408883.92006                 100838137.30305 100838141.29904                        40.000                          24.250          35.000          24.250
R02                                  24125356.022 3                                                                                                                                                        20.500
R03  23689511.264 6  23689510.830 6  23689521.226 5  23689520.680 5                 126811838.63806 126811818.64606  98631469.05305  98631464.04805                        39.750          38.250          35.000          34.750
R09  21170158.650 8  21170158.834 8  21170166.972 7  21170167.226 7  21170153.991 7 113047475.48908 113047483.49108  87925839.69907  87925830.69407  84882237.30907        50.000          49.750          47.750          47.250          45.750
R10  19283538.422 8  19283538.180 8                                                 102792202.21308 102792199.21808                                                        49.250          48.750
R11  21274314.472 8  21274314.723 8  21274321.445 7  21274321.446 7  21274310.056 7 113683554.80908 113683553.82008  88420601.81807  88420586.81607  85299947.60207        50.250          50.500          46.750          47.500          46.500
R19  21882933.762 6  21882933.378 6  21882943.532 7  21882942.893 7                 117059050.35206 117059063.36706  91046062.27007  91046030.26707                        37.500          36.250          43.000          43.000
R20  19213216.142 7  19213216.276 7  19213225.414 7  19213224.757 7                 102741879.00307 102741859.01307  79910414.30807  79910449.30707                        42.500          42.000          45.000          45.250
R21  22364816.290 8  22364816.446 7  22364827.542 7  22364828.025 7  22364814.683 7 119678728.49908 119678710.51707  93083559.43007  93083555.43407  89672353.63407        48.000          47.000          42.750          43.250          42.000
> 2024 02 29 23 00 30.0000000  0 35
C06                  40641882.128 6                  40641886.620 6  40641887.626 6                 211632943.78506                 171969139.16806 163648063.81506                        36.250                          36.250          38.250
C12                  24217016.536 7                  24217021.945 7  24217023.040 8                 126104461.31007                 102470288.71407  97512066.67608                        42.750                          46.750          48.000
C16                  40551214.617 6                  40551222.700 6  40551223.737 5                 211160840.40206                 171585521.02806 163283014.52705                        37.500                          36.750          35.000
C19  27239635.232 5  27239633.372 5  27239648.852 5  27239642.814 6                 143145238.68205 141843923.79805 106894243.02405 115259849.99306                        31.500          33.000          33.750          36.000
C20  26420706.200 5  26420705.127 6  26420717.227 6  26420710.844 6                 138841754.65605 137579566.51606 103680601.12906 111794701.14606                        35.750          37.000          37.250          40.250
C24  22115488.974 8  22115486.734 8  22115491.590 8  22115490.757 9                 116217777.76108 115161235.99408  86786057.89108  93577991.80009                        50.500          52.000          52.250          54.000
C26  22871514.222 8  22871511.728 8  22871520.188 8  22871518.648 8                 120190649.81608 119098001.42708  89752796.77508  96776929.69508                        48.500          50.500          48.500          51.000
C29  25499076.962 6  25499075.773 6  25499086.339 6  25499083.082 6                 133998595.48806 132780424.41806 100063952.09106 107895022.82806                        37.750          40.500          39.000          40.500
C34  26783587.421 5  26783583.678 5  26783605.048 5  26783600.221 5                 140748692.47715 139469158.46505 105104620.46905 113330172.60005                        31.750          30.250          30.500          34.000
C35  21584734.274 8  21584732.441 8  21584739.542 8  21584737.702 8                 113428690.45808 112397514.46508  84703358.88608  91332277.49508                        50.000          52.500          50.250          53.750
E04  28583523.348 3  28583537.666 4                                                                                                                                        23.250          24.500
E13  23876464.265 8  23876472.073 8  23876466.913 8  23876468.578 8  23876470.082 9 125471877.39508  93696691.17808 101844163.18308  96140921.38308  94918814.85509        48.750          51.250          53.500          52.250          54.750
E15  24352255.962 7  24352264.006 8  24352259.437 8  24352260.521 8  24352262.051 8 127972131.27807  95563737.70708 103873571.46108  98056684.12908  96810216.99308        47.500          50.000          52.250          50.750          53.500
E18  22331115.797 4  22331129.204 4  22331123.914 4  22331124.586 4  22331127.069 5 117350729.62104  87632066.50304  95252232.53104  89918101.68004  88775094.16605        25.750          26.500          28.750          28.000          30.250
E21  23679495.515 8  23679501.820 8  23679499.335 9  23679498.594 8  23679499.977 9 124436680.59408  92923569.30408 101003846.70609  95347647.51508  94135614.98409        49.250          52.250          54.500          53.250          55.750
E26  27440115.386 6  27440131.766 6  27440125.595 6  27440127.484 6  27440129.032 7 144198803.33406 107681004.70706 117044546.74606 110490057.61906 109085540.73807        36.750          40.250          39.500          41.000          43.500
E27  24445897.053 7  24445904.740 8  24445902.027 8  24445901.550 8  24445902.808 8 128464072.15907  95931001.67108 104272811.23708  98433540.17208  97182275.99608        47.500          49.500          51.500          50.750          53.250
E30                  28795896.998 4  28795890.229 5  28795893.495 4  28795895.325 5                                 122827216.90505 115948879.18304 114474956.84805                        26.250          31.750          29.000          30.750
E34                  28361934.009 4                  28361929.562 3  28361931.977 4                 111298366.84804                 114201785.50603 112750083.74204                        25.500                          23.750          27.500
G06  21257707.762 8                  21257707.655 6  21257713.382 7  21257712.466 6  21257714.093 8 111710192.02708                  87047017.10607  87047015.10906  83420083.80708        48.250                          41.500          46.750          41.500          51.250
G11  20760949.616 8  20760949.696 8  20760949.406 7  20760951.695 8  20760951.476 7  20760956.327 9 109099752.78008 109099741.78108  85012919.16008  85012917.15607  81470751.33509        49.250          48.750          44.750          50.000          44.750          54.500
G12  20213101.539 8                  20213101.191 8  20213102.616 8  20213102.030 8                 106220667.37808                  82769406.63408  82769400.63308                        51.000                          48.250          48.750          48.250
G19  23092236.769 6                  23092235.526 4                  23092239.755 4                 121350589.82106                                  94558949.31904                        39.500                          25.250                          25.250
G20  23700226.821 6                  23700225.704 3                  23700233.256 3                 124545619.68006                                  97048583.22403                        38.500                          21.000                          21.000
G24  23871976.143 6                  23871975.942 4  23871985.551 6  23871985.185 4  23871987.755 7 125448019.44806                  97751719.89206  97751709.86704  93678735.31607        40.000                          26.750          40.250          26.750          44.500
G25  21280847.565 7                  21280846.805 6  21280853.212 7  21280852.179 6  21280854.007 8 111831706.54107                  87141646.07007  87141651.05206  83510773.15408        47.500                          39.250          45.250          39.250          50.500
G28  24672030.628 4                                  24672037.531 5                  24672043.446 5                                 101027866.30205                  96818408.07405        29.000                                          32.250                          35.000
G29  24607469.386 6                  24607469.015 4  24607477.055 5  24607477.028 4                 129313149.89306                 100763539.47305 100763543.48404                        41.500                          24.000          33.500          24.000
R03  23682541.673 6  23682541.203 6  23682551.532 5  23682551.724 5                 126774538.81106 126774518.81706  98602458.22505  98602453.20905                        40.500          40.000          34.750          35.000
R09  21190852.900 8  21190853.597 8  21190861.717 7  21190861.820 7  21190848.446 7 113157984.65208 113157992.65408  88011791.13907  88011782.14807  84965213.52407        49.750          49.750          47.500          47.000          45.250
R10  19287336.757 8  19287336.243 8                                                 102812447.42508 102812444.42408                                                        49.250          49.000
R11  21255277.573 8  21255277.519 8  21255284.992 8  21255284.782 8  21255272.575 7 113581825.92708 113581824.93608  88341479.45408  88341464.46108  85223617.74307        51.000          51.000          48.250          48.250          46.500
R19  21903561.080 6  21903562.118 6  21903572.639 7  21903571.905 7                 117169398.37306 117169411.37806  91131888.39107  91131856.41007                        37.250          36.750          43.750          43.750
R20  19211217.765 7  19211217.828 6  19211226.653 7  19211226.166 7                 102731192.09907 102731172.10306  79902102.28207  79902137.28407                        42.500          41.750          45.250          45.500
R21  22344037.022 7  22344037.514 7  22344049.987 7  22344049.750 7  22344035.747 7 119567538.36807 119567520.37407  92997078.48307  92997074.50107  89589041.90507        47.500          47.000          43.750          43.750          42.000
> 2024 02 29 23 01 00.0000000  0 36
C06                  40636416.280 5                  40636421.063 6  40636421.943 6                 211604483.85905                 171946013.18806 163626056.83406                        35.500                          36.750          38.000
C12                  24201530.923 7                  24201536.358 7  24201537.100 7                 126023823.00007                 102404763.63407  97449712.20807                        43.500                          47.250          47.750
C16                  40546563.472 6                  40546571.358 6  40546572.775 5                 211136618.96406                 171565839.17306 163264285.00405                        37.750                          36.500          35.000
C19  27224199.468 5  27224198.220 5  27224215.530 5  27224208.297 6                 143064130.84805 141763553.38405 106833675.76405 115194542.57306                        30.250          32.250          34.250          36.000
C20  26413310.426 5  26413310.198 6  26413323.542 6  26413316.412 6                 138802897.31105 137541062.49706 103651584.41806 111763413.46006                        33.750          37.500          38.500          39.750
C24  22111328.219 8  22111325.970 8  22111330.330 8  22111329.912 9                 116195911.65608 115139568.67108  86769729.33608  93560385.35009                        50.500          52.250          52.250          54.000
C26  22884941.972 8  22884939.531 8  22884948.027 8  22884946.487 8                 120261213.32008 119167923.44508  89805490.23308  96833747.01508                        48.000          50.500          48.500          50.750
C29  25516363.346 6  25516361.625 6  25516372.276 6  25516368.858 6                 134089432.78706 132870435.91706 100131785.03306 107968164.49806                        37.000          40.250          39.500          40.500
C34  26765661.262 5  26765661.034 5  26765681.518 5  26765674.389 5                 140654499.13605 139375821.46005 105034281.59505 113254328.85005                        30.000          32.250          32.750          32.750
C35  21589711.239 8  21589709.679 8  21589716.632 8  21589714.730 8                 113454845.21308 112423431.44608  84722890.04308  91353337.17708                        49.250          52.250          50.500          53.500
E04  28592304.125 4  28592314.701 3                                                                                                                                        25.500          21.000
E13  23867313.228 8  23867320.830 8  23867315.853 8  23867317.509 8  23867318.973 9 125423788.27808  93660780.54508 101805129.85608  96104073.94308  94882435.81809        49.000          51.500          53.500          52.500          55.000
E15  24360179.243 7  24360187.337 8  24360182.803 8  24360183.721 8  24360185.399 8 128013768.54207  95594830.44808 103907367.92308  98088587.98908  96841715.29308        47.500          50.250          52.250          51.000          53.750
E18  22359612.535 3  22359626.290 4  22359618.971 4  22359622.773 4  22359624.129 5 117500480.70803  87743893.54704  95373783.69804  90032845.96204  88888379.82905        23.750          27.750          27.500          29.250          31.500
E21  23674602.102 8  23674608.278 8  23674605.810 9  23674605.096 8  23674606.474 9 124410965.08308  92904366.17608 100982973.73309  95327943.43808  94116161.38109        49.500          52.250          54.500          53.750          56.000
E26  27422031.903 6  27422048.018 6  27422042.934 6  27422043.687 6  27422045.674 7 144103774.69806 107610042.05306 116967413.29906 110417243.74006 109013652.47307        36.750          40.500          40.750          41.000          43.750
E27  24456274.696 7  24456282.370 8  24456279.683 8  24456279.170 8  24456280.477 8 128518607.04707  95971725.73908 104317076.54308  98475326.61108  97223531.24908        47.500          49.750          51.500          51.000          53.250
E30                  28812154.427 4  28812148.234 5  28812150.843 4  28812152.749 5                                 122896560.71405 116014339.77804 114539585.31405                        25.750          31.250          28.000          30.000
E34                  28379018.343 4                                  28379014.452 4                 111365402.57804                                 112817993.85504                        24.750                                          27.000
G06  21268383.170 8                  21268383.054 6  21268388.536 7  21268387.905 6  21268389.470 8 111766291.13408                  87090730.67807  87090728.67606  83461975.97108        48.250                          41.750          47.000          41.750          51.250
G11  20756432.343 8  20756432.310 8  20756432.133 7  20756433.930 8  20756433.711 7  20756438.575 9 109076012.08008 109076001.08008  84994419.94108  84994417.93607  81453022.91809        49.750          49.250          44.750          50.250          44.750          54.500
G12  20210064.211 8                  20210063.858 8  20210065.204 8  20210064.689 8                 106204705.72308                  82756968.99108  82756962.98708                        51.250                          48.500          49.250          48.500
G19  23110019.919 6                  23110018.645 4                  23110021.757 4                 121444034.84206                                  94631763.51704                        40.750                          26.000                          26.000
G20  23681889.770 6                  23681888.679 3                  23681895.860 3                 124449257.17306                                  96973495.73803                        39.000                          21.500                          21.500
G24  23892203.505 6                  23892203.304 4  23892213.494 6  23892212.672 4  23892215.246 7 125554314.62706                  97834547.10406  97834537.10904  93758111.38307        40.250                          27.500          40.750          27.500          44.500
G25  21266819.432 7                  21266818.677 6  21266824.721 7  21266823.979 6  21266826.366 8 111757990.34307                  87084204.98507  87084209.96706  83455725.47308        47.500                          39.250          44.500          39.250          50.500
G28                                                  24656607.084 5                  24656613.844 6                                 100964679.61105                  96757854.14206                                                        32.500                          36.750
G29  24589268.626 6                  24589268.233 3  24589276.026 5  24589276.222 3                 129217504.95106                 100689011.08305 100689015.10603                        41.750                          22.750          31.750          22.750
R02  24144515.846 4                                                                                                                                                        24.500
R03  23675701.624 6  23675702.536 5  23675712.578 5  23675713.075 6                 126737931.23706 126737911.26905  98573985.70505  98573980.72106                        37.000          35.250          35.750          36.000
R09  21211625.433 8  21211625.804 8  21211633.973 7  21211634.107 7  21211621.096 7 113268906.57608 113268914.58908  88098063.62107  88098054.62807  85048499.66307        50.000          49.500          47.500          47.250          45.750
R10  19291273.319 8  19291273.015 8                                                 102833433.34708 102833430.35308                                                        49.000          48.750
R11  21236314.114 8  21236314.284 8  21236321.158 8  21236321.095 8  21236308.231 7 113480490.65408 113480489.66308  88262663.26808  88262648.26908  85147583.20707        51.250          51.000          48.250          48.500          46.000
R19  21924228.289 6  21924228.526 6  21924238.184 7  21924237.571 7                 117279948.78106 117279961.78706  91217871.95507  91217839.95207                        37.500          36.500          42.750          42.750
R20  19209341.709 7  19209341.821 6  19209350.991 7  19209350.320 7                 102721161.58807 102721141.59806  79894300.79807  79894335.80007                        42.000          41.500          45.000          45.250
R21  22323312.813 7  22323313.350 7  22323325.720 7  22323325.510 7  22323312.096 7 119456642.51407 119456624.52607  92910826.43707  92910822.44907  89505950.71607        47.500          47.250          43.000          43.250          42.500
> 2024 02 29 23 01 30.0000000  0 36
C06                  40630976.106 5                  40630981.054 6  40630981.925 6                 211576155.17005                 171922993.85006 163604151.33606                        35.250                          37.000          39.000
C12                  24186085.967 7                  24186092.060 7  24186092.851 8                 125943400.05407                 102339413.57207  97387524.30708                        43.000                          47.250          48.250
C16                  40541937.831 6                  40541946.620 6  40541948.408 6                 211112536.35906                 171546270.11906 163245662.84706                        38.250                          36.500          36.500
C19  27208786.202 5  27208785.277 5  27208801.558 5  27208793.579 5                 142983133.95205 141683292.81605 106773191.25405 115129324.44105                        30.750          33.500          34.000          35.500
C20  26405997.434 5  26405996.902 6  26406009.458 6  26406003.576 6                 138764468.66905 137502983.20506 103622887.78806 111732470.98206                        33.250          36.750          37.500          39.500
C24  22107259.974 8  22107257.341 8  22107261.978 8  22107261.623 8                 116174532.21208 115118383.58608  86753764.18908  93543170.74908                        50.500          52.250          52.250          53.750
C26  22898440.050 8  22898437.797 8  22898446.203 8  22898444.789 8                 120332147.07908 119238212.34808  89858460.17608  96890862.45708                        48.000          50.500          48.250          50.500
C29  25533658.439 6  25533655.189 6  25533668.000 6  25533664.054 6                 134180318.30806 132960495.18506 100199653.94706 108041344.93706                        37.250          39.250          40.250          41.000
C34  26747749.446 5  26747748.074 5  26747768.308 5  26747762.604 5                 140560370.15805 139282548.18905 104963990.91005 113178537.07305                        31.000          34.250          32.250          32.250
C35  21594753.885 8  21594752.459 8  21594759.385 8  21594757.510 8                 113481345.06308 112449690.38508  84742678.89908  91374674.72008                        49.250          52.500          50.250          53.250
E04  28601145.446 3  28601158.432 3                                                                                                                                        23.250          22.750
E13  23858232.876 8  23858240.375 8  23858235.309 8  23858237.077 8  23858238.495 9 125376070.46808  93625147.18608 101766397.92208  96067511.01108  94846337.67209        48.750          51.250          53.000          52.500          55.000
E15  24368169.109 7  24368177.283 8  24368172.696 8  24368173.596 8  24368175.301 8 128055755.51407  95626184.34508 103941448.25008  98120759.81808  96873478.15708        47.500          50.000          51.750          50.750          53.500
E18  22388206.028 3  22388218.379 4  22388211.207 4  22388214.625 4  22388216.326 5                  87856097.69904  95495744.84004  90147977.19204  89002047.51805        23.250          27.500          25.000          26.750          30.000
E21  23669763.419 8  23669769.617 8  23669767.127 9  23669766.355 8  23669767.832 9 124385537.87308  92885378.33008 100962334.77209  95308460.25708  94096925.86809        49.250          52.250          54.250          53.500          55.750
E26  27403966.353 6  27403981.288 6  27403975.779 6  27403976.729 6  27403978.604 7 144008834.00006 107539145.08706 116890351.26806 110344497.24006 108941830.73807        38.750          40.250          41.000          39.750          43.000
E27  24466702.477 7  24466709.722 8  24466707.079 8  24466706.535 8  24466707.905 8 128573403.39507  96012645.05708 104361554.08108  98517313.39108  97264984.29808        47.750          49.500          51.250          50.500          53.000
E30                  28828422.370 4  28828415.033 4  28828419.166 4  28828420.259 5                                 122965948.86004 116079842.13904 114604255.01605                        27.500          28.500          28.500          30.750
E34                  28396111.547 4                                  28396107.946 4                 111432486.59204                                 112885952.77904                        24.500                                          25.000
G06  21279151.358 8                  21279151.238 6  21279156.822 7  21279156.379 6  21279158.118 8 111822879.61808                  87134825.57407  87134823.57206  83504233.57808        48.000                          41.750          46.500          41.750          51.250
G11  20752025.145 8  20752025.206 8  20752024.935 7  20752026.902 8  20752026.589 7  20752031.574 9 109052852.86808 109052841.86708  84976373.81908  84976371.81807  81435728.72909        49.750          49.250          44.750          50.000          44.750          54.500
G12  20207123.616 8                  20207123.259 8  20207124.814 8  20207124.327 8                 106189253.54508                  82744928.34408  82744922.34308                        51.000                          48.500          49.000          48.500
G19  23127825.636 6                  23127824.362 4                  23127828.694 4                 121537610.15306                                  94704679.23704                        40.000                          25.500                          25.500
G20  23663584.344 6                  23663583.236 3                  23663590.354 3                 124353060.74806                                  96898537.69603                        39.500                          21.750                          21.750
G24  23912455.253 6                  23912455.048 4  23912464.044 6  23912464.030 4  23912467.415 7 125660739.45306                  97917475.38006  97917465.37804  93837584.27207        39.500                          25.500          38.500          25.500          44.500
G25  21252861.474 7                  21252860.714 6  21252866.853 7  21252866.106 6  21252868.153 8 111684640.98307                  87027049.75007  87027054.73106  83400951.72808        47.250                          39.250          44.750          39.250          50.500
G28  24641243.866 5  24641243.775 5                  24641249.513 5                  24641256.461 6                 129490605.43715 100901796.56705                  96697591.25306        32.250          31.750                          32.000                          38.000
G29  24571087.175 6                  24571086.813 3  24571093.860 5  24571093.176 3                 129121958.54706                 100614559.48705 100614563.48203                        40.750                          20.500          31.750          20.500
R02  24154277.955 4                  24154287.709 4                                                                                                                        27.750                          24.000
R03  23668995.296 5  23668995.614 5  23669005.643 6  23669005.388 6                 126702027.42805 126702007.43705  98546060.50206  98546055.48306                        35.000          34.250          36.500          36.750
R09  21232476.240 8  21232476.790 8  21232485.196 7  21232484.865 7  21232472.260 7 113380247.77808 113380255.79308  88184662.19907  88184653.20507  85132100.60407        49.750          49.500          47.750          47.000          45.500
R10  19295350.797 8  19295350.475 8                                                 102855168.64008 102855165.63908                                                        49.000          48.500
R11  21217426.130 8  21217426.385 8  21217433.111 7  21217433.071 8  21217421.289 7 113379561.35708 113379560.36308  88184162.81207  88184147.81808  85071853.28407        50.750          50.750          47.500          48.000          46.250
R19  21944934.425 6  21944934.515 6  21944942.836 6  21944942.393 7                 117390707.13006 117390720.14606  91304017.24306  91303985.25207                        38.250          37.250          41.750          42.500
R20  19207590.472 6  19207590.159 6  19207599.507 7  19207598.913 7                 102711795.97306 102711775.97406  79887016.45707  79887051.44907                        41.750          41.500          45.000          45.500
R21  22302646.729 7  22302647.001 7  22302658.182 7  22302658.146 7  22302645.220 7 119346051.81707 119346033.82907  92824811.75107  92824807.74807  89423088.17707        47.500          47.250          42.500          43.000          42.500
> 2024 02 29 23 02 00.0000000  0 36
C06                  40625558.794 5                  40625564.364 6  40625565.678 6                 211547948.29705                 171900073.52006 163582340.05206                        35.250                          38.000          39.500
C12                  24170681.147 7                  24170686.834 7  24170687.978 8                 125863183.34707                 102274231.13707  97325495.91508                        43.250                          47.000          48.750
C16                  40537338.982 6                  40537346.609 5  40537349.005 6                 211088583.07106                 171526806.17605 163227140.70006                        39.250                          35.750          37.500
C19  27193393.313 5  27193390.831 5  27193408.226 5  27193400.931 6                 142902240.43605 141603134.68105 106712783.97605 115064189.53706                        32.250          33.750          35.250          36.500
C20  26398765.305 5  26398765.126 6  26398777.504 6  26398771.045 6                 138726460.42105 137465320.44606 103594505.03706 111701866.98506                        35.250          37.500          38.250          40.250
C24  22103282.100 8  22103280.044 8  22103284.461 8  22103283.914 8                 116153630.37708 115097671.77308  86738155.70808  93526340.72608                        50.500          52.500          52.250          53.500
C26  22912006.659 8  22912004.522 8  22912012.955 8  22912011.129 8                 120403439.56508 119308856.71908  89911698.00508  96948266.74508                        48.500          50.500          48.250          50.250
C29  25550959.608 6  25550958.303 6  25550969.634 6  25550966.033 6                 134271240.84706 133050591.16506 100267550.53306 108114555.20306                        37.250          40.750          39.250          40.250
C34  26729847.458 5  26729845.575 5  26729866.266 5  26729861.063 5                 140466296.37705 139189329.59705 104893741.53505 113102789.72805                        33.750          35.000          32.500          34.500
C35  21599860.197 8  21599858.445 8  21599865.711 8  21599863.867 8                 113508178.84108 112476280.22608  84762717.11408  91396281.14108                        49.750          52.250          50.250          53.250
E04  28610046.082 3  28610060.941 4                                                                                                                                        19.500          26.000
E13  23849221.430 8  23849228.733 8  23849223.890 8  23849225.519 8  23849226.911 9 125328714.58808  93589784.09108 101727959.75108  96031225.39508  94810513.31709        49.000          51.000          53.250          53.000          55.000
E15  24376223.418 7  24376231.530 8  24376226.795 8  24376228.080 8  24376229.579 8 128098080.85407  95657790.91308 103975803.21808  98153190.90808  96905496.98608        47.250          49.750          51.750          51.500          53.750
E18  22416891.157 3  22416905.757 4  22416899.444 4  22416901.113 4  22416903.708 4                  87968668.17904  95618103.97204  90263484.28904  89116086.30004        21.750          26.750          27.000          27.250          29.750
E21  23664978.051 8  23664984.146 8  23664981.704 9  23664980.879 8  23664982.324 9 124360389.95008  92866599.05408 100941922.50709  95289191.08308  94077901.64309        49.250          52.000          54.500          53.750          56.000
E26  27385914.842 6  27385928.695 6  27385924.345 6  27385924.624 6  27385926.601 7 143913972.55706 107468307.28906 116813353.55606 110271811.44506 108870068.94407        39.750          38.750          41.000          40.250          42.500
E27  24477177.621 7  24477185.012 8  24477182.312 8  24477181.737 8  24477183.133 8 128628450.89507  96053751.92408 104406235.47108  98559492.61908  97306627.34608        47.750          49.000          51.250          51.000          53.000
E30                  28844698.514 4  28844689.973 4  28844693.633 4  28844696.183 4                                 123035372.23104 116145377.89104 114668957.69004                        27.250          25.000          25.750          29.500
E34                  28413216.635 3                                  28413212.972 3                                                                 112953952.15503                        23.250                                          23.250
G06  21290010.900 8                  21290010.789 7  21290015.993 7  21290015.550 7  21290017.396 8 111879945.24708                  87179292.28107  87179290.27407  83546847.49508        48.250                          42.000          46.500          42.000          51.500
G11  20747726.276 8  20747726.408 8  20747726.071 7  20747728.471 8  20747728.256 7  20747733.281 9 109030265.49508 109030254.49408  84958773.29608  84958771.29407  81418861.56609        49.250          49.250          44.750          50.000          44.750          54.500
G12  20204278.614 8                  20204278.261 8  20204279.625 8  20204279.200 8                 106174302.12508                  82733277.90908  82733271.90308                        51.250                          48.750          49.000          48.750
G19  23145655.257 6                  23145653.983 4                  23145658.167 4                 121631304.26606                                  94777687.54404                        39.750                          25.500                          25.500
G20  23645308.944 6                  23645307.836 3                  23645314.578 3                 124257023.04006                                  96823703.31603                        38.750                          21.500                          21.500
G24  23932729.237 6                  23932729.036 4  23932739.374 6  23932738.444 4  23932741.555 7 125767281.06606                  98000494.65906  98000484.66204  93917144.37807        39.000                          25.750          39.250          25.750          43.750
G25  21238972.235 8                  21238971.475 6  21238977.144 7  21238976.469 6  21238978.311 8 111611650.60008                  86970174.22407  86970179.21806  83346446.04808        48.000                          39.750          45.000          39.750          50.500
G28  24625959.373 5  24625960.146 5                  24625966.192 5                  24625972.264 6 129410290.61615 129410287.60405 100839211.40805                  96637613.84306        32.250          31.250                          32.500                          38.250
G29  24552921.187 6                  24552920.807 3  24552928.010 5  24552927.778 3                 129026501.71506                 100540177.76705 100540181.72603                        39.000                          20.000          32.000          20.000
R02  24164160.304 4                  24164166.575 3                                                                                                                        24.500                          22.000
R03  23662417.903 6  23662417.170 6  23662428.925 6  23662429.640 6                 126666819.11406 126666799.12906  98518676.33106  98518671.34706                        37.250          36.500          38.500          38.250
R09  21253402.942 8  21253403.269 8  21253411.304 7  21253411.295 7  21253399.267 7 113491995.15008 113492003.15408  88271576.67907  88271567.67907  85216006.54307        49.500          49.250          47.000          46.250          45.500
R10  19299566.939 8  19299566.822 8                                                 102877643.62408 102877640.62708                                                        49.500          48.500
R11  21198613.004 8  21198613.250 8  21198620.629 7  21198620.325 7  21198608.047 7 113279031.84908 113279030.86108  88105973.32307  88105958.31907  84996423.34807        50.750          51.000          47.750          47.250          46.250
R19  21965676.226 6  21965675.752 6  21965684.981 7  21965684.958 7                 117501660.03206 117501673.05506  91390313.84707  91390281.85207                        37.750          36.750          43.500          42.750
R20  19205961.622 7  19205961.353 6  19205970.532 7  19205969.647 7                 102703083.75807 102703063.77806  79880240.31607  79880275.31307                        42.000          41.750          45.000          45.250
R21  22282035.541 8  22282036.131 8  22282047.124 7  22282046.811 7  22282033.514 7 119235758.08608 119235740.09308  92739028.00507  92739024.00707  89340448.10307        48.250          48.000          42.500          42.250          42.000
> 2024 02 29 23 02 30.0000000  0 35
C06                  40620167.038 5                  40620172.612 6  40620173.944 6                 211519870.59905                 171877258.12806 163560628.64806                        35.250                          38.250          40.000
C12                  24155318.308 7                  24155323.172 7  24155323.502 8                 125783180.49907                 102209222.48207  97263632.91708                        44.000                          47.750          48.250
C16                  40532764.786 6                  40532772.445 5  40532775.784 6                 211064766.52306                 171507453.30305 163208724.27706                        39.750                          35.500          38.500
C19  27178019.907 5  27178018.825 5  27178035.853 5  27178028.147 5                 142821459.62005 141523088.27605 106652460.85505 114999145.43405                        31.750          34.000          35.500          35.500
C20  26391614.449 5  26391613.125 6  26391625.413 6  26391619.679 6                 138688881.18305 137428082.83306 103566442.63106 111671608.40906                        34.500          37.250          37.750          39.500
C24  22099397.313 8  22099394.907 8  22099399.473 8  22099398.720 8                 116133214.09808 115077441.09708  86722909.80808  93509901.66008                        51.000          52.500          52.500          53.500
C26  22925642.466 8  22925640.356 8  22925649.080 8  22925647.182 8                 120475096.20708 119379861.92308  89965207.75808  97005964.24108                        48.250          50.500          48.500          50.500
C29  25568269.529 6  25568269.297 6  25568279.648 6  25568276.239 6                 134362206.25706 133140729.58406 100335479.15506 108187800.00706                        37.500          40.500          39.000          40.250
C34  26711957.477 5  26711956.283 6  26711975.855 5  26711970.707 5                 140372285.34105 139096173.25406 104823539.07605 113027092.97505                        34.250          36.750          31.750          35.750
C35  21605031.214 8  21605029.345 8  21605036.750 8  21605034.817 8                 113535352.48908 112503206.84508  84783009.12608  91418161.22108                        49.750          52.250          50.500          53.250
E04                  28619023.604 3                                                                                                                                                        23.750
E13  23840279.971 8  23840287.416 8  23840282.690 8  23840284.275 8  23840285.626 9 125281728.16708  93554696.89408 101689821.46708  95995222.86708  94774968.45509        49.000          51.000          53.500          52.500          54.750
E15  24384342.974 7  24384351.162 8  24384346.440 8  24384347.958 8  24384349.265 8 128140750.12207  95689654.31408 104010437.35608  98185885.53108  96937775.99708        47.250          49.750          52.000          51.000          53.500
E18                  22445687.635 3  22445681.191 4                                                                  95740864.19704                                                        23.750          24.250
E21  23660246.892 8  23660253.193 8  23660251.047 9  23660250.020 8  23660251.483 9 124335529.27408  92848034.27008 100921743.39209  95270142.00008  94059094.70909        49.250          52.000          54.500          53.250          55.750
E26  27367879.220 6  27367893.686 6  27367888.495 6  27367889.288 6  27367891.485 7 143819198.59606 107397534.85606 116736426.88006 110199192.73306 108798373.37007        38.000          38.750          40.250          39.750          42.250
E27  24487701.881 7  24487709.295 8  24487706.487 8  24487705.975 8  24487707.411 8 128683756.22707  96095051.31708 104451126.12908  98601869.39108  97348465.42908        47.500          49.250          51.000          50.500          53.000
E30                  28860985.117 4                  28860979.069 4  28860981.297 4                                                 116210952.01104 114733698.23104                        26.500                          24.000          28.250
E34                  28430331.776 3                                                                                                                                                        20.250
G06  21300961.704 8                  21300961.588 6  21300966.752 7  21300966.497 6  21300968.392 8 111937492.77008                  87224134.48207  87224132.47506  83589821.26108        48.500                          41.750          46.750          41.750          52.000
G11  20743538.419 8  20743538.543 8  20743538.218 7  20743540.176 8  20743540.060 7  20743545.175 9 109008257.22008 109008246.21608  84941624.02508  84941622.01807  81402426.85109        49.500          49.250          44.500          50.000          44.500          55.000
G12  20201530.325 8                  20201529.972 8  20201531.103 8  20201530.674 8                 106159859.03508                  82722023.56908  82722017.56208                        51.500                          48.500          49.250          48.500
G19  23163508.140 6                  23163506.862 4                  23163511.998 4                 121725122.94306                                  94850792.88904                        39.750                          25.750                          25.750
G20  23627065.803 6                  23627064.686 3                  23627070.968 3                 124161154.43306                                  96749000.76103                        39.500                          21.000                          21.000
G24  23953026.734 6                  23953026.515 4  23953036.973 6  23953036.356 4  23953038.408 7 125873943.51506                  98083608.06806  98083598.07204  93996794.70807        39.500                          26.000          40.500          26.000          44.000
G25  21225152.289 8                  21225151.525 6  21225157.265 7  21225157.082 6  21225158.901 8 111539028.36108                  86913585.56907  86913590.56006  83292215.26508        48.000                          39.750          45.250          39.750          51.250
G28  24610748.806 5  24610749.914 5  24610748.735 1  24610755.370 5  24610755.697 1  24610762.394 6 129330364.43505 129330361.48105 100776931.41505 100776925.41611  96577928.89806        30.750          31.250           8.000          30.750           8.000          38.250
G29  24534774.284 6                  24534773.913 3  24534782.932 5  24534781.680 3                 128931141.83806                 100465871.56005 100465875.54003                        37.750                          20.750          35.750          20.750
R03  23655972.807 6  23655970.648 6  23655983.208 6  23655983.624 6                 126632315.25006 126632295.27206  98491840.06006  98491835.05106                        39.000          37.500          37.250          37.250
R09  21274406.074 8  21274406.768 8  21274415.312 7  21274415.285 7  21274402.717 7 113604152.51408 113604160.51808  88358810.05407  88358801.06207  85300220.29207        49.500          49.000          47.500          47.000          45.500
R10  19303923.736 8  19303923.101 8                                                 102900865.00908 102900862.00908                                                        49.500          48.500
R11  21179876.742 8  21179877.055 8  21179884.349 7  21179884.273 7  21179872.696 7 113178913.15408 113178912.16908  88028103.32007  88028088.32307  84921301.62307        50.500          50.750          47.250          47.500          47.000
R19  21986454.243 6  21986454.932 6  21986463.691 7  21986463.494 7                 117612811.89306 117612824.90506  91476765.16807  91476733.17207                        37.250          36.250          43.000          43.250
R20  19204455.263 7  19204455.353 6  19204464.312 7  19204463.834 7                 102695031.89007 102695011.88606  79873977.77007  79874012.77107                        42.000          41.500          45.000          45.250
R21  22261481.756 8  22261481.823 7  22261492.270 7  22261492.534 7  22261479.716 7 119125770.31508 119125752.32107  92653482.20707  92653478.20907  89258037.26907        48.250          47.750          42.500          42.750          42.250
> 2024 02 29 23 03 00.0000000  0 34
C06                  40614798.956 5                  40614804.388 6  40614805.192 6                 211491916.41105                 171854543.08706 163539012.72206                        35.000                          38.750          40.000
C12                  24139993.989 7                  24139999.420 8  24139999.545 8                 125703386.09407                 102144383.21708  97201931.08608                        43.750                          48.000          48.250
C16                  40528216.179 6                  40528223.332 5  40528227.176 6                 211041080.94706                 171488206.89405 163190409.17106                        39.750                          34.750          39.000
C19  27162668.311 5  27162668.146 5  27162684.118 5  27162676.940 6                 142740787.96505 141443149.99405 106592219.24505 114934189.16806                        31.000          34.500          35.750          36.500
C20  26384544.808 5  26384541.879 6  26384555.043 6  26384549.349 6                 138651726.23105 137391265.71806 103538697.13506 111641691.48606                        35.500          36.750          38.500          38.500
C24  22095603.457 8  22095600.935 8  22095605.782 8  22095605.164 8                 116113278.09008 115057686.32408  86708022.55208  93493849.30508                        50.750          52.000          52.500          53.750
C26  22939346.208 8  22939343.695 8  22939352.607 8  22939350.866 8                 120547109.18508 119451220.24108  90018983.60508  97063948.66108                        48.250          50.000          48.500          50.500
C29  25585586.046 6  25585585.372 6  25585597.508 6  25585593.334 6                 134453207.24106 133230903.32606 100403434.32706 108261073.45506                        37.250          40.250          40.750          40.500
C34  26694078.220 5  26694076.686 6  26694095.404 5  26694091.065 6                 140278331.63705 139003073.68306 104753379.47405 112951442.37706                        35.000          37.000          33.500          37.000
C35  21610265.779 8  21610263.892 8  21610270.989 8  21610268.997 8                 113562858.69708 112530462.99208  84803549.47308  91440309.07608                        50.000          52.250          50.500          53.250
E04                  28628045.914 3                                                                                                                                                        22.250
E13  23831407.881 8  23831415.349 8  23831410.569 8  23831412.181 8  23831413.581 9 125235105.57408  93519881.38108 101651978.49208  95959499.11508  94739698.82309        49.000          51.500          53.750          52.750          55.250
E15  24392526.798 7  24392534.798 8  24392530.282 8  24392531.741 8  24392532.954 8 128183755.72507  95721768.86908 104045344.48608  98218837.85308  96970309.43408        47.250          50.000          52.000          51.500          53.750
E18                  22474558.857 3                                  22474555.162 4                                                                  89345277.78604                        19.250                                          24.000
E21  23655569.860 8  23655576.030 8  23655573.965 9  23655572.835 8  23655574.303 9 124310950.59908  92829680.07808 100901793.18009  95251309.00208  94040501.11409        49.250          52.250          54.750          53.500          56.000
E26  27349858.683 5  27349874.181 6  27349869.151 6  27349869.935 6  27349872.083 7 143724507.09605 107326824.07906 116659567.17606 110126637.29006 108726740.25807        35.250          39.000          40.500          40.500          42.750
E27  24498273.801 7  24498281.524 8  24498278.654 8  24498278.092 8  24498279.515 8 128739312.86307  96136538.38008 104496220.77108  98644438.72708  97390493.62908        47.500          49.500          51.250          50.750          53.250
E30                  28877276.636 3                                  28877274.475 4                                                                 114798471.45504                        22.000                                          25.250
G06  21312002.921 8                  21312002.801 6  21312008.367 7  21312007.598 6  21312009.632 8 111995513.71108                  87269345.56307  87269343.56506  83633148.55008        48.750                          41.750          46.750          41.750          51.500
G11  20739459.194 8  20739459.412 8  20739458.993 7  20739461.322 8  20739461.103 7  20739466.275 9 108986822.10108 108986811.10208  84924921.36408  84924919.35707  81386420.13909        49.500          49.500          44.750          50.000          44.750          54.750
G12  20198877.382 8                  20198877.025 8  20198878.276 8  20198877.838 8                 106145919.14908                  82711161.33108  82711155.32908                        51.500                          48.500          49.000          48.500
G19  23181383.489 6                  23181382.229 4                  23181387.335 4                 121819058.94506                                  94923989.65704                        39.000                          25.000                          25.000
G20  23608853.089 6                  23608851.949 3                  23608858.597 3                 124065451.55006                                  96674427.34103                        38.750                          21.000                          21.000
G24  23973345.655 6                  23973345.427 4  23973355.993 6  23973355.381 4  23973357.647 7 125980717.70006                  98166808.56006  98166798.57504  94076528.50407        39.500                          26.500          40.500          26.500          44.250
G25  21211401.945 7                  21211401.190 6  21211407.668 7  21211406.600 6  21211408.432 8 111466770.22707                  86857280.63407  86857285.62206  83238256.39208        47.750                          39.750          45.750          39.750          51.000
G28  24595613.297 5  24595613.121 5  24595613.239 1  24595620.697 5  24595620.831 1  24595627.547 6 129250826.35805 129250823.36105 100714953.71805 100714947.70701  96518533.62306        30.500          31.000           8.250          31.750           8.250          36.750
G29  24516644.907 6                  24516644.572 3  24516653.756 6  24516653.305 3                 128835873.38006                 100391636.62806 100391640.61503                        37.500                          22.250          37.250          22.250
R03  23649656.250 6  23649656.277 6  23649667.411 5  23649668.475 5                 126598511.75006 126598491.75206  98465548.50805  98465543.51005                        39.500          39.000          34.500          34.750
R09  21295484.635 8  21295485.355 8  21295494.271 7  21295494.137 7  21295481.139 7 113716711.07208 113716719.08208  88446355.45207  88446346.47007  85384735.28507        49.250          48.750          47.500          47.000          45.500
R10  19308418.386 8  19308418.230 8                                                 102924826.53308 102924823.52608                                                        49.250          48.500
R11  21161217.884 8  21161218.095 8  21161224.794 7  21161224.785 7  21161212.806 7 113079202.46308 113079201.47108  87950550.66607  87950535.67107  84846486.07007        51.250          51.250          47.750          47.750          46.750
R19  22007268.066 6  22007268.464 6  22007278.024 7  22007277.331 7                 117724153.27706 117724166.30606  91563363.93807  91563331.95007                        37.750          36.750          42.750          42.500
R20  19203071.456 6  19203071.568 6  19203080.836 7  19203080.076 7                 102687632.04006 102687612.05306  79868222.36007  79868257.36307                        41.750          41.750          45.250          45.250
R21  22240983.162 7  22240983.542 7  22240995.138 7  22240995.491 7  22240981.935 7 119016083.95107 119016065.95607  92568170.86707  92568166.86607  89175852.26807        47.500          47.000          43.250          43.250          42.250
> 2024 02 29 23 03 30.0000000  0 33
C06                  40609456.335 5                  40609461.073 6  40609461.511 6                 211464091.90205                 171831933.43506 163517497.10106                        35.000                          39.000          40.000
C12                  24124711.353 7                  24124716.682 8  24124717.723 8                 125623806.51007                 102079718.53308  97140395.40908                        44.500                          48.000          48.750
C16                  40523693.778 6                  40523700.466 5  40523704.642 6                 211017532.52606                 171469071.92105 163172200.10006                        40.250                          34.500          39.250
C19  27147340.682 5  27147339.998 6  27147355.384 6  27147347.745 6                 142660233.90805 141363328.21706 106532065.39506 114869327.58906                        32.750          36.000          36.250          37.750
C20  26377555.892 5  26377554.810 6  26377567.473 6  26377561.055 6                 138615003.16805 137354876.45306 103511274.09406 111612122.30506                        35.000          38.750          39.000          39.750
C24  22091902.150 8  22091899.793 8  22091904.658 8  22091904.267 9                 116093829.02208 115038414.06308  86693498.91908  93478189.03409                        50.750          52.500          52.250          54.000
C26  22953118.517 8  22953116.178 8  22953124.853 8  22953123.063 8                 120619482.79308 119522935.90208  90073028.76108  97122223.45908                        48.250          50.500          48.250          50.500
C29  25602910.840 6  25602909.508 6  25602921.429 6  25602918.311 6                 134544248.51806 133321116.94906 100471419.55106 108334379.30706                        37.250          40.000          39.750          41.000
C34  26676210.910 5  26676208.326 6  26676229.378 5  26676223.961 6                 140184441.69505 138910037.32806 104683267.49205 112875843.14806                        35.500          36.500          35.500          38.000
C35  21615564.135 8  21615562.342 8  21615569.358 8  21615567.398 8                 113590702.12108 112558053.29208  84824341.63708  91462728.45608                        50.000          52.500          50.250          53.250
E04  28637118.270 3  28637128.967 4                                                                                                                                        19.500          24.000
E13  23822606.326 8  23822613.811 8  23822608.947 8  23822610.500 8  23822611.981 9 125188853.14008  93485342.28708 101614435.98008  95924058.99608  94704709.21709        49.250          51.500          53.500          52.500          55.000
E15  24400775.137 7  24400783.535 8  24400778.522 8  24400780.264 8  24400781.508 8 128227102.07607  95754137.87308 104080528.19808  98252051.27008  97003100.64608        47.500          50.250          51.750          51.000          53.750
E21  23650947.697 8  23650953.971 8  23650951.588 9  23650950.718 8  23650952.087 9 124286660.70508  92811541.54208 100882077.36909  95232697.28108  94022125.98609        49.500          52.500          54.750          53.500          56.000
E26  27331857.041 6  27331872.195 6  27331866.977 6  27331867.547 6  27331869.609 7 143629905.20006 107256180.22606 116582780.23106 110054150.51306 108655174.94507        36.750          40.250          41.000          40.250          43.250
E27  24508894.600 7  24508902.381 8  24508899.667 8  24508899.114 8  24508900.497 8 128795126.29707  96178217.20508 104541523.85508  98687204.83008  97432716.09208        47.500          49.750          51.250          50.500          53.000
E30                  28893579.440 3                                  28893578.433 4                                                                 114863281.45704                        21.500                                          24.750
G06  21323134.701 8                  21323134.576 7  21323139.897 7  21323139.468 7  21323141.305 8 112054011.62608                  87314928.33007  87314926.32907  83676832.02008        48.500                          42.000          46.750          42.000          51.500
G11  20735490.912 8  20735490.951 8  20735490.707 7  20735492.660 8  20735492.468 7  20735497.543 9 108965966.24308 108965955.23708  84908670.07308  84908668.06907  81370845.99209        49.750          49.500          45.000          50.250          45.000          54.500
G12  20196322.196 8                  20196321.839 8  20196322.933 8  20196322.330 8                 106132489.38208                  82700696.59708  82700690.59408                        51.750                          48.750          49.250          48.750
G19  23199283.114 6                  23199281.845 4                  23199285.891 4                 121913117.31206                                  94997281.77404                        40.000                          25.500                          25.500
G20  23590675.189 6                  23590674.013 3                  23590679.924 3                 123969922.82106                                  96599989.65603                        39.750                          21.500                          21.500
G24  23993685.226 6                  23993685.052 4  23993695.287 6  23993695.676 4  23993698.125 7 126087606.59606                  98250098.43806  98250088.44304  94156347.91007        38.250                          25.000          39.000          25.000          44.250
G25  21197722.145 7                  21197721.399 6  21197727.716 7  21197726.974 6  21197729.092 8 111394884.15407                  86801265.60507  86801270.59406  83184575.34308        47.750                          39.750          45.250          39.750          51.000
G28  24580552.865 5  24580553.696 5  24580552.936 1  24580559.594 5  24580560.051 1  24580566.060 5 129171684.48005 129171681.53005 100653284.80905 100653278.72401  96459434.29105        30.250          30.250           8.750          31.250           8.750          35.500
G29  24498535.960 6                  24498535.594 4  24498543.141 6  24498543.123 4                 128740703.07806                 100317478.19006 100317482.19404                        40.500                          26.250          38.000          26.250
R03  23643474.176 6  23643474.556 6  23643487.443 6  23643487.071 6                 126565416.25706 126565396.26006  98439807.71406  98439802.72306                        41.000          40.500          36.500          36.000
R09  21316640.268 8  21316640.179 8  21316648.147 7  21316647.968 7  21316635.426 7 113829673.45108 113829681.45208  88534214.96207  88534205.96007  85469553.47907        49.750          49.000          46.500          46.250          45.500
R10  19313053.484 8  19313053.104 8                                                 102949533.81808 102949530.82108                                                        49.000          48.500
R11  21142636.644 8  21142636.680 8  21142643.076 7  21142643.308 8  21142631.624 7 112979909.82208 112979908.82808  87873323.16407  87873308.16908  84771984.16607        51.250          51.000          47.500          48.250          47.000
R19  22028119.709 6  22028118.940 6  22028128.191 7  22028127.985 7                 117835686.77506 117835699.78706  91650112.09407  91650080.09807                        38.250          36.500          42.750          42.750
R20  19201810.308 6  19201810.876 6  19201819.872 7  19201819.246 7                 102680890.19906 102680870.20406  79862978.72807  79863013.73707                        41.750          41.500          44.750          45.000
R21  22220543.323 8  22220544.432 7  22220555.680 7  22220555.885 7  22220542.262 7 118906706.85608 118906688.86607  92483100.02207  92483096.03207  89093899.00107        48.000          47.750          44.000          43.750          43.250
> 2024 02 29 23 04 00.0000000  0 33
C06                  40604135.299 5                  40604141.178 6  40604142.018 6                 211436390.84605                 171809424.10806 163496076.94906                        34.250                          39.250          40.000
C12                  24109468.726 7                  24109473.652 7  24109474.322 8                 125544435.67407                 102015223.48107  97079021.17008                        44.000                          47.500          48.000
C16                  40519196.737 6                  40519203.363 5  40519206.966 6                 210994114.93406                 171450043.22405 163154092.21206                        39.750                          34.250          39.250
C19  27132032.233 5  27132032.908 5  27132047.391 5  27132041.326 6                 142579793.00105 141283618.60605 106471996.09305 114804557.12306                        31.750          34.750          35.750          38.000
C20  26370647.788 5  26370648.106 6  26370660.156 6  26370653.564 6                 138578706.52305 137318909.81206 103484169.56706 111582896.53806                        34.500          37.750          39.000          39.000
C24  22088292.789 8  22088290.490 8  22088295.096 8  22088294.643 8                 116074861.01608 115019618.49008  86679334.51808  93462916.11208                        50.500          52.250          52.250          53.750
C26  22966957.669 8  22966955.795 8  22966964.318 8  22966962.568 8                 120692208.56408 119595000.53008  90127336.89008  97180781.82608                        48.000          50.250          48.500          50.250
C29  25620243.067 6  25620240.040 6  25620251.760 6  25620249.232 6                 134635322.07806 133411362.57406 100539428.93606 108407711.19706                        36.750          39.750          38.750          40.750
C34  26658354.481 5  26658354.056 6  26658373.579 6  26658367.577 6                 140090609.50605 138817058.14406 104613198.57106 112800290.37806                        34.000          36.000          37.000          37.000
C35  21620925.327 8  21620923.199 8  21620930.434 8  21620928.537 8                 113618874.87208 112585969.92708  84845379.72608  91485413.00408                        49.750          52.250          50.500          53.250
E04                  28646272.257 3                                                                                                                                                        21.000
E13  23813874.001 8  23813881.621 8  23813876.488 8  23813878.108 8  23813879.625 9 125142964.58408  93451074.92108 101577188.82108  95888897.69008  94669994.88009        49.250          51.250          53.500          52.750          55.250
E15  24409087.305 7  24409095.265 8  24409090.266 8  24409092.110 8  24409093.341 8 128270780.94507  95786755.19008 104115981.81308  98285519.47408  97036143.40708        47.500          49.500          51.500          51.250          53.500
E21  23646379.419 8  23646385.662 8  23646383.104 9  23646382.368 8  23646383.711 9 124262653.74108  92793614.27208 100862591.20509  95214302.34608  94003964.88409        49.750          52.250          54.500          53.750          56.000
E26  27313871.485 6  27313885.906 6  27313880.849 7  27313881.052 6  27313882.810 7 143535387.36406 107185599.14006 116506061.49807 109981728.10606 108583673.19807        37.000          40.250          42.250          40.250          43.000
E27  24519563.250 7  24519570.942 8  24519568.438 8  24519567.599 8  24519569.000 8 128851189.34907  96220082.43808 104587029.56208  98730162.20208  97475127.39408        47.750          49.250          51.500          50.750          53.000
G06  21334355.271 8                  21334355.133 6  21334360.999 7  21334360.386 6  21334362.205 8 112112977.42408                  87360875.67407  87360873.67306  83720864.88808        48.000                          41.750          46.750          41.750          51.500
G11  20731630.935 8  20731631.135 8  20731630.730 7  20731632.907 8  20731632.692 7  20731637.690 9 108945683.00008 108945671.99808  84892864.98408  84892862.97607  81355699.45509        49.750          49.500          45.000          50.250          45.000          54.750
G12  20193862.368 8                  20193862.015 8  20193863.365 8  20193862.815 8                 106119564.27408                  82690625.10608  82690619.10308                        51.750                          49.000          49.250          49.000
G19  23217202.778 6                  23217201.518 4                  23217206.476 4                 122007289.46906                                  95070662.56904                        38.750                          25.750                          25.750
G20  23572528.534 6                  23572527.291 3                  23572534.096 3                 123874564.70706                                  96525684.91203                        39.000                          20.750                          20.750
G24  24014046.422 6                  24014046.248 4  24014055.808 6  24014055.736 4  24014058.262 7 126194600.42606                  98333470.10806  98333460.10304  94236245.70907        39.000                          24.750          38.500          24.750          44.500
G25  21184112.756 7                  21184112.010 6  21184118.027 7  21184117.231 6  21184119.185 8 111323365.56107                  86745536.91007  86745541.89706  83131168.69508        47.750                          40.000          45.250          40.000          51.000
G28  24565567.160 4  24565567.597 4  24565567.026 1  24565575.369 5  24565574.319 1  24565581.150 5 129092934.48004 129092931.54804 100591921.34405 100591915.19901  96400627.64905        28.000          28.000           7.250          32.750           7.250          35.500
G29  24480442.101 6                  24480441.744 4  24480449.926 6  24480449.971 4                 128645624.77506                 100243391.45206 100243395.42504                        41.000                          27.250          37.750          27.250
R03  23637422.455 6  23637422.947 6  23637435.364 6  23637434.747 6                 126533024.00106 126533004.03906  98414613.83306  98414608.83806                        40.000          38.500          38.250          37.500
R04  24526990.216 4                                                                 131340928.71814                                                                        28.250
R09  21337867.770 8  21337867.699 8  21337876.445 7  21337876.387 7  21337863.724 7 113943029.55508 113943037.56408  88622380.66807  88622371.66807  85554667.32507        49.250          48.750          47.250          46.250          45.500
R10  19317826.887 8  19317826.766 8                                                 102974980.08908 102974977.09508                                                        49.000          48.500
R11  21124132.890 8  21124132.881 8  21124139.523 8  21124139.532 8  21124127.418 7 112881031.59508 112881030.60408  87796417.98208  87796402.98008  84697793.21507        51.500          51.250          48.250          48.250          46.750
R19  22049003.710 6  22049003.209 6  22049013.381 7  22049012.733 7                 117947402.33606 117947415.34906  91737001.86407  91736969.86507                        37.500          36.250          44.000          43.750
R20  19200671.246 7  19200671.559 6  19200680.434 7  19200679.781 7                 102674797.56407 102674777.57106  79858240.03207  79858275.03407                        42.000          41.500          44.500          45.000
R21  22200160.964 8  22200161.210 7  22200171.818 7  22200171.724 7  22200158.870 7 118797633.93308 118797615.94107  92398265.74407  92398261.74407  89012173.60607        48.000          47.750          43.000          43.000          42.500
> 2024 02 29 23 04 30.0000000  0 32
C06                  40598841.433 5                  40598846.757 6  40598847.002 6                 211408821.34705                 171787021.67106 163474758.50306                        33.750                          39.250          40.000
C12                  24094267.824 7                  24094272.450 7  24094272.901 7                 125465282.07607                 101950904.93407  97017814.86707                        44.000                          47.750          47.750
C16                  40514725.694 6                  40514733.612 5  40514736.580 6                 210970836.28606                 171431127.45205 163136091.73806                        38.500                          34.750          39.500
C19  27116749.535 5  27116747.165 5  27116763.558 6  27116756.916 6                 142499475.74005 141204031.50205 106412019.10606 114739886.22006                        33.750          34.750          37.250          38.250
C20  26363825.239 6  26363823.308 6  26363835.493 6  26363829.745 6                 138542845.80106 137283375.07706 103457390.47806 111554021.67506                        36.250          38.000          38.500          38.500
C24  22084776.625 8  22084774.183 8  22084778.794 8  22084778.242 8                 116056382.66808 115001308.13808  86665535.77308  93448037.46008                        50.750          52.250          52.250          53.750
C26  22980865.280 8  22980863.286 8  22980871.894 8  22980869.862 8                 120765292.69008 119667420.25808  90181912.62208  97239628.72708                        48.250          50.000          48.250          50.250
C29  25637580.761 6  25637578.794 6  25637591.060 6  25637587.405 6                 134726434.65306 133501646.84106 100607467.41106 108481074.47906                        36.750          39.750          39.750          40.500
C34  26640512.307 5  26640510.760 6  26640529.805 6  26640523.918 6                 139996843.58305 138724144.71406 104543179.11906 112724790.96106                        34.250          36.500          36.750          36.750
C35  21626350.276 8  21626348.040 8  21626355.490 8  21626353.606 8                 113647383.59908 112614219.48308  84866668.70408  91508368.07908                        50.000          52.000          50.500          53.250
E04                  28655474.788 3                                                                                                                                                        22.250
E13  23805212.431 8  23805220.185 8  23805215.105 8  23805216.587 8  23805218.095 9 125097448.20508  93417085.47308 101540243.74708  95854021.55508  94635562.08809        49.000          51.750          53.250          52.750          55.250
E15  24417463.488 7  24417471.564 8  24417466.910 8  24417468.320 8  24417469.658 8 128314798.70007  95819625.57508 104151710.49908  98319247.35108  97069442.53708        47.250          50.000          51.500          51.250          53.750
E21  23641866.464 8  23641872.701 8  23641870.274 9  23641869.488 8  23641870.822 9 124238938.37908  92775904.76808 100843341.73809  95196130.85608  93986024.38709        49.250          52.250          54.250          53.750          56.000
E26  27295902.057 6  27295916.572 6  27295911.859 7  27295912.357 6  27295914.035 7 143440962.58206 107115087.52606 116429418.32007 109909377.02006 108512241.84707        37.500          39.750          42.500          41.000          43.500
E27  24530280.981 7  24530288.221 8  24530285.614 8  24530285.066 8  24530286.426 8 128907509.48907  96262139.63808 104632743.92508  98773316.55908  97517733.17208        47.500          49.500          51.000          50.500          53.000
G06  21345666.135 8                  21345666.010 6  21345671.801 7  21345671.380 6  21345672.824 8 112172416.57908                  87407191.86407  87407189.87306  83765251.23408        48.000                          41.750          46.750          41.750          51.500
G11  20727881.965 8  20727882.035 8  20727881.755 7  20727883.713 8  20727883.382 7  20727888.282 9 108925980.37108 108925969.36908  84877512.31808  84877510.31207  81340986.49209        49.750          49.250          45.000          50.250          45.000          54.750
G12  20191499.991 8                  20191499.638 8  20191501.238 8  20191500.786 8                 106107152.27508                  82680953.44008  82680947.43708                        51.000                          48.750          49.250          48.750
G19  23235147.232 6                  23235146.007 4                  23235150.201 4                 122101582.21006                                  95144137.34904                        39.500                          25.000                          25.000
G20  23554416.806 6                  23554415.523 3                  23554422.181 3                 123779387.90906                                  96451521.47403                        39.250                          21.500                          21.500
G24  24034427.951 6                  24034427.768 4  24034437.448 6  24034437.032 4  24034440.121 7 126301704.18306                  98416927.36406  98416917.38204  94316225.54607        39.250                          25.500          39.500          25.500          45.000
G25  21170575.046 8                  21170574.295 6  21170580.273 7  21170579.611 6  21170581.480 8 111252224.32008                  86690102.26207  86690107.24706  83078043.83908        48.000                          40.000          45.500          40.000          51.250
G28  24550659.104 4  24550659.214 4  24550658.944 1  24550665.364 5  24550665.569 1  24550671.878 6 129014586.82104 129014583.78004 100530871.26305 100530865.33601  96342121.34206        28.750          27.500           6.750          32.500           6.750          36.000
G29  24462369.004 7                  24462368.647 4  24462376.458 6  24462375.863 4                 128550646.86507                 100169382.93606 100169386.91804                        42.750                          29.250          38.250          29.250
R03  23631505.196 6  23631505.629 6  23631516.052 6  23631516.933 6                 126501344.60606 126501324.61806  98389974.34606  98389969.37306                        39.250          38.250          37.000          37.250
R09  21359170.104 8  21359170.560 8  21359179.078 7  21359179.382 7  21359166.608 7 114056784.72108 114056792.73308  88710856.76607  88710847.77007  85640080.79007        49.250          48.750          47.000          46.500          45.750
R10  19322741.006 8  19322740.586 8                                                 103001173.14708 103001170.15208                                                        49.250          48.750
R11  21105708.583 8  21105708.498 8  21105716.078 8  21105716.132 8  21105703.898 7 112782579.86408 112782578.86808  87719844.52208  87719829.53108  84623922.27507        51.250          50.750          48.500          48.750          47.250
R19  22069921.703 6  22069922.490 6  22069932.220 7  22069931.384 7                 118059305.13106 118059318.14506  91824037.25807  91824005.26307                        38.000          36.500          43.250          42.750
R20  19199654.093 7  19199654.559 6  19199664.023 7  19199663.058 7                 102669360.66107 102669340.67506  79854011.35407  79854046.36307                        42.250          41.750          44.750          45.000
R21  22179835.747 7  22179835.805 7  22179847.956 7  22179847.625 7  22179834.887 7 118688874.94607 118688856.95507  92313675.64307  92313671.64107  88930683.41007        47.750          47.500          43.250          43.250          42.750
> 2024 02 29 23 05 00.0000000  0 32
C06                  40593570.910 5                  40593575.898 6  40593576.389 6                 211381375.72705                 171764719.91406 163453535.88106                        34.000                          39.500          40.250
C12                  24079106.214 7                  24079112.155 8  24079112.606 8                 125386338.26707                 101886756.87108  96956770.82108                        43.500                          48.000          48.250
C16                  40510279.957 6                  40510288.809 5  40510291.639 6                 210947688.83606                 171412318.31805 163118192.75006                        38.000                          35.250          39.500
C19  27101487.422 5  27101486.433 5  27101502.120 6  27101494.614 6                 142419276.35905 141124561.24005 106352130.11206 114675310.21406                        32.750          35.250          37.500          37.500
C20  26357081.706 5  26357081.590 6  26357093.623 6  26357087.915 6                 138507414.21105 137248265.61306 103430931.89506 111525492.42006                        35.500          39.000          38.750          39.500
C24  22081351.930 8  22081349.595 8  22081354.349 8  22081353.596 8                 116038386.67508 114983475.74908  86652097.22308  93433547.19408                        50.500          52.250          52.500          53.750
C26  22994839.069 7  22994836.852 8  22994845.705 8  22994843.830 8                 120838725.35807 119740185.35708  90236748.62608  97298756.27408                        47.750          50.250          48.250          50.500
C29  25654923.547 6  25654922.818 6  25654934.493 6  25654931.697 6                 134817576.85906 133591960.47006 100675528.00706 108554461.60006                        36.750          40.000          39.750          41.000
C34  26622678.881 5  26622677.598 5  26622696.960 6  26622691.865 6                 139903136.43505 138631289.47605 104473203.50906 112649338.78906                        32.500          34.750          36.750          38.250
C35  21631837.332 8  21631835.369 8  21631842.729 8  21631840.845 8                 113676218.94608 112642792.69508  84888201.58908  91531586.15108                        49.750          52.250          50.500          53.250
E13  23796620.315 8  23796627.975 8  23796622.851 8  23796624.435 8  23796625.935 9 125052296.31608  93383368.20708 101503594.52708  95819424.70008  94601405.02809        49.250          51.750          53.500          52.750          55.250
E15  24425902.334 7  24425910.531 8  24425906.149 8  24425907.130 8  24425908.638 8 128359145.69707  95852741.81808 104187706.42408  98353227.49508  97102990.73108        47.250          49.750          52.000          51.000          53.250
E21  23637407.473 8  23637413.814 8  23637411.466 9  23637410.574 8  23637412.033 9 124215507.39908  92758407.63108 100824323.10109  95178177.26608  93968299.02309        49.500          52.250          54.500          53.500          56.000
E26  27277949.619 6  27277964.085 6  27277959.747 7  27277959.619 6  27277961.830 7 143346623.90406 107044640.18806 116352845.00207 109837091.89606 108440875.61807        38.750          40.000          42.000          41.000          43.750
E27  24541045.611 8  24541052.963 8  24541050.437 8  24541049.803 8  24541051.106 8 128964078.12908  96304382.40608 104678660.00708  98816661.32008  97560526.93808        48.000          49.250          51.000          50.500          53.000
E34                  28516071.146 3                                                                                                                                                        21.000
G06  21357065.160 8                  21357065.031 6  21357070.834 7  21357070.404 6  21357071.852 8 112232318.57608                  87453868.72607  87453866.72806  83809983.22608        48.500                          41.250          46.750          41.250          51.250
G11  20724241.568 8  20724241.575 8  20724241.358 7  20724243.119 8  20724243.083 7  20724248.006 9 108906850.32408 108906839.32108  84862605.82008  84862603.81307  81326701.10009        50.250          49.500          45.000          50.250          45.000          55.000
G12  20189234.814 8                  20189234.457 8  20189235.690 8  20189235.077 8                 106095246.21008                  82671675.99708  82671670.00408                        52.000                          48.750          49.500          48.750
G19  23253111.425 6                  23253110.169 4                  23253115.190 4                 122195986.06606                                  95217698.68104                        39.750                          25.000                          25.000
G20  23536339.051 6                  23536337.782 3                  23536344.072 3                 123684387.24606                                  96377495.28303                        40.000                          21.750                          21.750
G24  24054828.583 6                  24054828.400 4  24054836.846 6  24054836.994 4  24054840.128 7 126408906.59206                  98500461.57106  98500451.56904  94396279.09107        40.500                          25.500          38.500          25.500          44.500
G25  21157107.717 8                  21157106.971 6  21157113.266 7  21157112.434 6  21157114.410 8 111181454.39108                  86634956.93907  86634961.92906  83025196.25708        48.250                          40.250          45.750          40.250          51.250
G28  24535826.915 4  24535824.490 4                  24535832.271 5                  24535838.070 6 128936635.42404 128936632.51104 100470130.07605                  96283911.09506        26.000          25.000                          31.250                          36.000
G29  24444312.055 7                  24444311.707 5  24444320.479 6  24444320.072 5                 128455761.72307                 100095446.69806 100095450.69905                        42.250                          30.000          39.000          30.000
R03  23625718.267 6  23625718.236 6  23625731.006 6  23625730.251 6                 126470371.60306 126470351.62306  98365884.33706  98365879.34206                        37.750          37.000          37.250          37.250
R09  21380545.095 8  21380545.613 8  21380554.914 7  21380554.569 7  21380541.951 7 114170927.58308 114170935.59008  88799634.40007  88799625.40407  85725785.38907        48.750          48.500          46.750          46.250          45.250
R10  19327793.224 8  19327792.839 8                                                 103028104.14508 103028101.15008                                                        49.000          48.750
R11  21087363.344 8  21087363.778 8  21087370.875 8  21087370.876 8  21087358.664 7 112684549.64508 112684548.65708  87643598.89608  87643583.89808  84550367.58507        51.250          51.500          48.500          48.500          47.500
R19  22090874.089 6  22090873.651 6  22090883.479 7  22090883.126 7                 118171383.63006 118171396.62006  91911209.33007  91911177.33407                        37.500          36.250          42.750          42.250
R20  19198759.348 7  19198759.049 6  19198768.008 7  19198767.441 7                 102664570.48707 102664550.49706  79850285.68307  79850320.69307                        42.500          41.750          45.250          45.250
R21  22159568.972 8  22159569.428 7  22159579.835 7  22159579.924 7  22159567.861 7 118580423.55208 118580405.55907  92229324.76207  92229320.76407  88849423.69507        48.000          47.250          42.500          43.000          43.000
> 2024 02 29 23 05 30.0000000  0 31
C06                  40588324.965 5                  40588330.401 6  40588331.299 6                 211354061.57705                 171742524.97806 163432414.89106                        34.000                          39.500          40.000
C12                  24063988.144 7                  24063993.217 7  24063994.129 8                 125307612.05307                 101822785.64007  96895895.04308                        44.000                          47.750          48.500
C16                  40505861.809 6                  40505870.388 5  40505873.061 6                 210924680.24406                 171393622.00205 163100401.10506                        38.250                          35.500          39.250
C19  27086250.343 5  27086249.426 6  27086264.849 6  27086257.760 6                 142339204.69105 141045217.52506 106292336.44206 114610837.02306                        34.000          36.000          38.000          38.750
C20  26350422.581 6  26350421.280 6  26350434.395 6  26350428.339 6                 138472420.57506 137213590.07606 103404800.37906 111497315.78906                        36.250          38.250          38.000          39.000
C24  22078020.712 8  22078018.566 8  22078023.064 8  22078022.333 8                 116020881.08408 114966129.29708  86639024.88008  93419451.79208                        50.250          52.500          52.500          53.750
C26  23008880.203 8  23008877.919 8  23008886.822 8  23008884.808 8                 120912512.16908 119813301.37208  90291849.09608  97358168.97608                        48.000          50.000          48.250          50.250
C29  25672274.862 6  25672272.278 6  25672284.642 6  25672281.935 6                 134908754.89906 133682309.60906 100743615.36206 108627877.55806                        37.000          38.750          39.000          40.250
C34  26604859.038 5  26604857.773 5  26604877.832 6  26604872.635 6                 139809495.94505 138538500.25405 104403277.68006 112573940.38506                        32.000          34.000          36.500          38.250
C35  21637387.789 8  21637385.827 8  21637393.240 8  21637391.316 8                 113705387.02708 112671695.61208  84909982.93508  91555072.12408                        49.750          52.250          50.500          53.250
E13  23788098.939 8  23788106.589 8  23788101.537 8  23788103.117 8  23788104.603 9 125007516.65008  93349928.89708 101467247.43308  95785113.05708  94567529.55109        49.000          51.750          53.750          52.750          55.250
E15  24434404.975 7  24434412.970 8  24434408.848 8  24434409.940 8  24434411.346 8 128403827.75807  95886108.27508 104223974.32208  98387464.38508  97136792.40408        47.000          49.500          52.000          51.000          53.250
E21  23633004.385 8  23633010.721 8  23633008.302 9  23633007.508 8  23633008.909 9 124192368.97308  92741128.96808 100805541.93409  95160447.85208  93950794.98409        49.250          52.250          54.750          53.500          56.000
E26  27260015.329 6  27260030.103 6  27260025.444 7  27260024.431 6  27260027.540 7 143252379.83206 106974263.47006 116276348.40807 109764879.21406 108369580.91807        38.750          40.250          42.750          39.750          43.000
E27  24551858.829 7  24551866.265 8  24551863.578 8  24551862.887 8  24551864.399 8 129020902.18107  96346815.90608 104724783.39208  98860201.78508  97603513.92008        47.750          49.250          51.000          50.500          52.750
G06  21368553.386 8                  21368553.261 6  21368558.752 7  21368558.117 6  21368559.824 8 112292688.37808                  87500910.12207  87500908.11906  83855064.55308        48.500                          41.250          46.250          41.250          51.000
G11  20720711.376 8  20720711.487 8  20720711.166 7  20720713.151 8  20720713.066 7  20720718.176 9 108888300.23908 108888289.23408  84848151.24008  84848149.23207  81312848.80409        50.000          49.250          45.000          50.000          45.000          54.750
G12  20187067.121 8                  20187066.768 8  20187068.033 8  20187067.376 8                 106083854.50108                  82662799.36608  82662793.36508                        52.250                          49.250          49.250          49.250
G19  23271098.346 6                  23271097.077 4                  23271101.480 4                 122290507.21506                                  95291351.42104                        40.250                          25.750                          25.750
G20  23518296.324 6                  23518295.064 3                  23518300.455 3                 123589572.78806                                  96303614.19403                        40.500                          22.250                          22.250
G24  24075247.803 6                  24075247.638 4  24075257.121 6  24075257.148 4  24075260.076 7 126516212.12606                  98584076.09806  98584066.09204  94476409.65207        40.250                          26.000          39.250          26.000          44.250
G25  21143713.135 8                  21143712.398 6  21143718.554 7  21143717.678 6  21143719.546 8 111111065.21008                  86580108.29807  86580113.28806  82972632.99308        48.500                          40.750          45.500          40.750          51.000
G28  24521067.133 4  24521068.209 4                  24521077.225 5                  24521081.016 5                 128859087.25604 100409705.43705                  96226004.13205        27.000          27.250                          31.500                          34.750
G29  24426274.815 6                  24426274.489 4  24426283.226 6  24426283.114 4                 128360976.97006                 100021588.69406 100021592.69704                        41.250                          27.750          38.000          27.750
R03  23620063.796 6  23620065.276 6  23620076.839 6  23620077.599 6                 126440113.57106 126440093.56906  98342350.37306  98342345.41106                        37.250          36.500          36.000          36.250
R09  21401994.438 8  21401994.804 8  21402003.233 7  21402003.358 7  21401990.856 7 114285462.62008 114285470.61708  88888717.06407  88888708.07207  85811784.41407        49.000          48.750          46.750          46.500          45.000
R10  19332985.205 8  19332984.753 8                                                 103055780.23008 103055777.23508                                                        49.250          48.500
R11  21069100.269 8  21069100.430 8  21069106.245 8  21069106.356 8  21069094.793 7 112586952.69008 112586951.70108  87567690.25908  87567675.25808  84477138.01207        52.000          51.500          48.000          48.000          47.750
R19  22111858.589 6  22111859.157 6  22111868.739 7  22111868.252 7                 118283642.32306 118283655.34306  91998521.56107  91998489.57007                        37.000          36.000          42.000          42.250
R20  19197985.089 7  19197985.246 6  19197994.215 7  19197993.647 7                 102660433.74007 102660413.74706  79847068.23407  79847103.24007                        42.000          41.750          45.250          45.250
R21  22139361.519 8  22139361.993 7  22139373.053 7  22139373.317 7  22139360.360 7 118472288.76808 118472270.76507  92145220.07207  92145216.08807  88768401.14107        48.000          47.500          44.000          43.750          43.250
> 2024 02 29 23 06 00.0000000  0 31
C06                  40583102.818 5                  40583109.385 6  40583110.359 6                 211326873.89405                 171720432.81306 163411391.70806                        33.750                          39.500          40.000
C12                  24048910.769 7                  24048915.413 8  24048916.329 8                 125229098.64707                 101758987.29608  96835183.78608                        44.000                          48.000          48.500
C16                  40501469.054 6                  40501477.284 5  40501479.631 6                 210901805.39206                 171375034.36405 163082712.91406                        38.500                          35.500          38.750
C19  27071036.713 5  27071035.564 5  27071051.460 6  27071043.830 6                 142259257.82205 140965997.41705 106232635.97606 114546464.30206                        33.000          35.000          37.750          37.500
C20  26343846.221 6  26343846.405 6  26343857.803 6  26343851.670 6                 138437860.82806 137179344.48406 103378992.83506 111469488.47706                        36.250          39.500          39.000          39.000
C24  22074782.118 8  22074779.726 8  22074784.220 8  22074783.579 8                 116003861.18808 114949264.12408  86626315.23108  93405747.46508                        50.500          52.500          52.750          53.750
C26  23022987.593 7  23022984.924 8  23022994.144 8  23022992.237 8                 120986645.95607 119886761.21208  90347208.66208  97417861.05008                        47.750          50.000          48.500          50.250
C29  25689632.030 6  25689629.995 6  25689640.794 6  25689638.043 6                 134999962.14206 133772687.67606 100811724.51306 108701317.07306                        37.000          40.000          38.750          40.000
C34  26587052.077 5  26587050.941 5  26587069.378 6  26587064.368 6                 139715917.51105 138445772.53205 104333398.10606 112498591.82406                        32.250          34.250          36.250          38.000
C35  21643000.419 8  21642998.354 8  21643005.812 8  21643003.825 8                 113734881.20108 112700921.65408  84932007.79508  91578820.67108                        50.000          52.000          50.750          53.250
E13  23779647.632 8  23779655.198 8  23779650.194 8  23779651.640 8  23779653.157 9 124963104.16708  93316763.78308 101431198.37308  95751082.76108  94533931.84609        49.250          51.750          53.750          52.750          55.250
E15  24442970.110 7  24442978.217 8  24442973.934 8  24442975.031 8  24442976.476 8 128448837.92707  95919719.75508 104260508.53708  98421952.68708  97170842.29608        47.000          49.500          52.000          51.000          53.250
E21  23628655.975 8  23628662.459 8  23628660.187 9  23628659.272 8  23628660.602 9 124169518.54408  92724065.35608 100786994.52509  95142939.10308  93933508.80309        49.500          52.250          55.000          53.750          56.000
E26  27242098.147 6  27242113.248 6  27242107.770 7  27242107.777 6  27242109.951 7 143158226.05606 106903954.16806 116199925.15007 109692735.69206 108298354.50607        37.750          39.750          42.250          40.000          42.750
E27  24562719.342 7  24562727.020 8  24562724.145 8  24562723.619 8  24562725.185 8 129077975.73807  96389435.72208 104771109.29608  98903933.42508  97646689.64808        47.750          49.250          50.750          50.500          53.000
G06  21380128.800 8                  21380128.675 6  21380134.040 7  21380133.643 6  21380135.618 8 112353518.11808                  87548309.89807  87548307.89806  83900489.33908        48.250                          41.000          46.250          41.000          51.000
G11  20717290.654 8  20717290.733 8  20717290.435 7  20717292.581 8  20717292.321 7  20717297.463 9 108870324.73708 108870313.73608  84834144.38308  84834142.38107  81299425.57409        50.000          49.750          45.000          50.250          45.000          54.750
G12  20184996.212 8                  20184995.868 8  20184996.989 8  20184996.712 8                 106072972.33008                  82654319.77008  82654313.76908                        52.000                          49.000          49.500          49.000
G19  23289105.768 6                  23289104.481 4                  23289109.095 4                 122385139.04706                                  95365090.41904                        39.750                          24.750                          24.750
G20  23500287.984 6                  23500286.750 3                  23500292.352 3                 123494941.68806                                  96229875.95103                        40.000                          21.000                          21.000
G24  24095684.903 6                  24095684.716 4  24095695.188 6  24095695.139 4  24095697.615 7 126623612.39506                  98667764.42706  98667754.41604  94556610.93607        39.250                          25.250          39.500          25.250          44.000
G25  21130390.416 8                  21130389.679 6  21130395.768 7  21130394.923 6  21130396.930 8 111041053.38308                  86525553.69707  86525558.68906  82920351.50708        48.750                          40.750          45.750          40.750          51.250
G28  24506389.838 5  24506389.497 5                  24506395.839 4                  24506401.736 5                 128781945.25305 100349594.80104                  96168398.03905        31.250          30.750                          29.500                          35.250
G29  24408255.474 6                  24408255.153 4  24408264.274 6  24408263.532 4                 128266288.31406                  99947805.61306  99947809.58804                        40.500                          26.250          36.750          26.250
R03  23614548.127 6  23614546.826 6  23614558.693 5  23614559.413 5                 126410567.49306 126410547.49206  98319370.12605  98319365.13105                        40.500          38.750          35.250          34.500
R09  21423515.862 8  21423515.741 8  21423523.911 7  21423524.407 7  21423511.592 7 114400380.91808 114400388.92508  88978097.83307  88978088.83907  85898071.24007        49.750          48.750          47.000          46.750          45.000
R10  19338315.761 8  19338315.220 8                                                 103084195.32008 103084192.32708                                                        49.250          48.500
R11  21050915.729 8  21050916.105 8  21050922.769 7  21050922.737 8  21050911.666 7 112489786.76408 112489785.77308  87492116.86007  87492101.86908  84404231.84207        51.000          51.250          47.750          48.000          47.500
R19  22132877.662 6  22132876.799 5  22132887.482 7  22132886.520 7                 118396072.23706 118396085.24705  92085966.95007  92085934.95307                        37.000          35.500          42.500          43.000
R20  19197332.529 7  19197332.431 6  19197341.610 7  19197340.993 7                 102656942.94007 102656922.95006  79844353.18107  79844388.19007                        42.250          41.500          45.500          45.250
R21  22119212.613 7  22119212.828 7  22119223.597 7  22119224.478 7  22119210.041 7 118364466.79807 118364448.79707  92061358.71407  92061354.73307  88687612.97607        47.750          47.500          44.250          44.250          42.500
> 2024 02 29 23 06 30.0000000  0 31
C06                  40577909.158 5                  40577913.798 6  40577914.504 6                 211299820.06105                 171698449.41306 163390472.03206                        34.500                          39.500          39.750
C12                  24033875.340 7                  24033879.466 7  24033880.373 8                 125150805.72307                 101695368.11907  96774643.00808                        44.500                          47.500          49.000
C16                  40497103.453 6                  40497111.165 5  40497113.557 6                 210879071.61906                 171356561.38305 163065133.78406                        39.000                          35.000          38.250
C19  27055848.516 5  27055848.279 5  27055863.885 6  27055856.165 6                 142179445.33705 140886910.49105 106173035.88306 114482199.80206                        31.500          35.000          37.000          38.000
C20  26337354.575 6  26337352.817 6  26337365.713 6  26337358.432 6                 138403743.43806 137145537.24806 103353515.66006 111442017.40606                        37.250          39.000          39.750          38.750
C24  22071636.999 8  22071635.049 8  22071639.377 8  22071638.692 8                 115987334.82808 114932888.00608  86613974.12508  93392440.53508                        50.500          52.500          52.500          53.500
C26  23037162.051 8  23037159.529 8  23037168.508 8  23037166.534 8                 121061132.08808 119960570.19508  90402831.35008  97477836.84208                        48.000          50.000          48.250          50.000
C29  25706995.219 6  25706992.353 6  25707004.060 6  25707001.733 6                 135091204.50206 133863100.54006 100879859.88606 108774784.83606                        37.750          39.250          39.250          40.500
C34  26569256.553 5  26569256.289 5  26569275.624 6  26569270.337 6                 139622408.78605 138353113.88805 104263570.55206 112423299.38306                        31.500          35.250          36.500          38.250
C35  21648676.259 8  21648674.417 8  21648681.616 8  21648679.607 8                 113764707.36808 112730476.67108  84954280.56108  91602836.53308                        50.000          52.250          50.500          53.000
E13  23771267.324 8  23771274.993 8  23771269.927 8  23771271.471 8  23771273.010 9 124919066.34208  93283878.44208 101395453.41808  95717339.53908  94500617.56509        49.000          52.000          53.750          53.000          55.500
E15  24451598.884 7  24451606.906 8  24451602.466 8  24451603.796 8  24451605.116 8 128494181.75707  95953580.39608 104297313.59108  98456696.64508  97205144.59508        47.000          49.750          51.750          51.250          53.500
E21  23624364.273 8  23624370.511 8  23624368.092 9  23624367.186 8  23624368.609 9 124146964.01508  92707222.71908 100768687.29909  95125657.09208  93916446.48009        49.500          52.500          54.750          53.750          56.250
E26  27224199.481 6  27224214.622 6  27224209.377 6  27224210.233 7  27224211.875 7 143064170.81806 106833718.43306 116123581.84706 109620667.71807 108227202.65007        36.750          39.750          41.500          42.500          44.250
E27  24573628.952 7  24573636.589 8  24573633.773 8  24573633.193 8  24573634.701 8 129135305.43007  96432246.81608 104817643.10808  98947861.33708  97690059.15208        47.500          49.500          50.750          50.500          53.000
G06  21391792.657 8                  21391792.541 6  21391798.295 7  21391797.414 6  21391799.551 8 112414812.48208                  87596071.72907  87596069.72206  83946261.07808        48.000                          41.000          46.250          41.000          51.000
G11  20713980.786 8  20713980.771 8  20713980.572 7  20713982.664 8  20713982.324 7  20713987.412 9 108852930.90308 108852919.90208  84820590.77508  84820588.76907  81286436.70709        50.000          49.500          45.000          50.250          45.000          54.750
G12  20183023.972 8                  20183023.619 8  20183024.468 8  20183024.177 8                 106062607.51008                  82646243.30308  82646237.29908                        52.000                          49.000          49.000          49.000
G19  23307136.343 6                  23307135.029 4                  23307139.272 4                 122479887.51606                                  95438920.29004                        40.500                          25.750                          25.750
G20  23482316.161 6                  23482314.927 3                  23482321.478 3                 123400504.15606                                  96156288.52603                        39.750                          22.250                          22.250
G24  24116141.432 6                  24116141.254 4  24116152.307 6  24116151.144 4  24116154.251 7 126731111.50106                  98751529.78206  98751519.77704  94636886.02007        38.750                          25.000          39.500          25.000          43.500
G25  21117141.401 8                  21117140.664 6  21117146.225 7  21117145.344 6  21117147.458 8 110971428.07108                  86471300.27107  86471305.26706  82868358.66408        48.500                          40.500          45.500          40.500          51.000
G28  24491788.403 5  24491789.140 5                  24491794.212 4                  24491801.106 6                 128705215.64405 100289805.51504                  96111100.09406        32.500          31.750                          29.500                          36.000
G29  24390255.517 6                  24390255.209 3  24390265.734 6  24390264.316 3                 128171703.35906                  99874103.31706  99874107.29603                        37.500                          22.500          36.000          22.500
R03  23609161.280 6  23609161.419 6  23609173.317 5  23609172.029 5                 126381741.64806 126381721.64906  98296950.14305  98296945.10805                        40.000          40.250          30.750          30.000
R09  21445108.125 8  21445108.912 8  21445117.743 7  21445117.899 7  21445104.409 7 114515686.65608 114515694.66208  89067779.91807  89067770.91407  85984648.96107        49.000          48.500          47.000          46.750          45.000
R10  19343786.331 8  19343785.973 8                                                 103113356.63608 103113353.63508                                                        49.000          48.500
R11  21032815.751 8  21032815.849 8  21032821.967 7  21032822.133 7  21032810.341 7 112393062.47108 112393061.47908  87416886.95407  87416871.94507  84331657.04807        52.000          52.000          47.750          47.750          47.500
R19  22153927.061 6  22153927.262 6  22153937.716 7  22153936.965 7                 118508677.90106 118508690.91806  92173548.99607  92173516.99707                        36.250          36.000          42.250          42.250
R20  19196801.373 7  19196801.578 6  19196810.538 7  19196810.015 7                 102654104.25407 102654084.25806  79842145.32507  79842180.31707                        42.000          41.750          45.250          44.750
R21  22099123.465 8  22099123.943 8  22099134.243 7  22099134.627 7  22099121.066 7 118256966.57808 118256948.58708  91977747.59307  91977743.58807  88607065.88807        48.500          48.250          43.500          43.000          42.500
> 2024 02 29 23 07 00.0000000  0 31
C06                  40572736.380 5                  40572742.294 6  40572743.201 6                 211272890.76505                 171676567.18706 163369648.66106                        35.000                          39.250          39.250
C12                  24018880.652 7                  24018884.719 8  24018885.805 8                 125072724.08107                 101631920.59308  96714265.60708                        44.750                          48.000          49.000
C16                  40492763.067 6                  40492770.233 5  40492773.206 6                 210856469.66706                 171338195.53305 163047656.59706                        39.250                          35.500          38.000
C19  27040685.127 5  27040683.910 5  27040699.270 6  27040692.543 6                 142099759.97205 140807949.56905 106113530.86206 114418037.77106                        32.000          34.500          36.500          38.750
C20  26330944.056 5  26330942.871 6  26330955.382 6  26330949.554 6                 138370060.12805 137112160.17706 103328362.66606 111414895.86706                        35.500          37.750          38.250          39.500
C24  22068584.297 8  22068582.227 8  22068586.864 8  22068586.169 9                 115971292.98408 114916991.98908  86601994.84008  93379523.73209                        50.750          52.500          52.500          54.000
C26  23051401.212 8  23051398.789 8  23051407.696 8  23051405.472 8                 121135959.10508 120034716.96108  90458708.58508  97538087.10808                        48.000          50.000          48.000          50.000
C29  25724361.954 6  25724360.689 6  25724371.519 6  25724369.111 6                 135182471.03806 133953537.38206 100948013.33306 108848272.07206                        36.750          39.000          38.500          40.750
C34  26551475.364 5  26551473.754 5  26551492.521 6  26551487.337 6                 139528960.69105 138260515.37205 104193788.23406 112348055.73806                        34.250          35.500          36.000          37.750
C35  21654413.104 8  21654410.828 8  21654418.483 8  21654416.443 8                 113794854.51708 112760349.75708  84976793.02708  91627110.85008                        50.000          52.000          50.500          53.250
E13  23762956.861 8  23762964.351 8  23762959.250 8  23762960.861 8  23762962.387 9 124875393.81708  93251265.89008 101360004.97908  95683876.22008  94467579.63009        49.000          51.750          53.750          53.000          55.500
E15  24460288.828 7  24460296.869 8  24460292.402 8  24460293.906 8  24460295.092 8 128539848.00007  95987681.80108 104334380.33208  98491687.65008  97239690.79908        47.000          49.500          51.750          51.250          53.500
E21  23620126.569 8  23620133.146 8  23620130.777 9  23620129.772 8  23620131.218 9 124124696.50908  92690594.41608 100750613.04709  95108595.00108  93899601.28309        49.250          52.250          54.750          53.750          56.000
E26  27206318.494 6  27206333.353 6  27206328.198 6  27206329.232 7  27206331.000 7 142970205.62106 106763549.92006 116047311.60706 109548668.71207 108156118.89107        37.750          41.000          41.500          43.250          45.000
E27  24584585.253 7  24584592.882 8  24584590.155 8  24584589.606 8  24584591.029 8 129192881.08507  96475241.57708 104864376.55708  98991977.70408  97733614.71508        47.250          49.250          51.000          50.500          53.000
G06  21403543.311 8                  21403543.195 6  21403548.247 7  21403547.634 6  21403549.297 8 112476559.29008                  87644186.10607  87644184.10106  83992370.68708        48.500                          41.250          46.500          41.250          51.250
G11  20710779.492 8  20710779.621 8  20710779.273 7  20710781.352 8  20710781.258 7  20710786.185 9 108836109.03108 108836098.02908  84807482.85808  84807480.84907  81273874.95809        49.750          49.750          45.000          50.250          45.000          55.000
G12  20181148.170 8                  20181147.817 8  20181149.149 8  20181148.482 8                 106052751.12508                  82638563.01308  82638557.01108                        52.000                          49.250          49.500          49.250
G19  23325186.641 6                  23325185.354 4                  23325189.659 4                 122574741.53406                                  95512832.42704                        40.000                          25.000                          25.000
G20  23464381.864 6                  23464380.653 3                  23464386.340 3                 123306253.23906                                  96082846.52503                        40.750                          22.750                          22.750
G24  24136614.799 6                  24136614.661 4  24136624.878 6  24136624.449 4  24136627.310 7 126838696.73206                  98835362.22306  98835352.23604  94717225.41907        39.500                          26.000          40.000          26.000          43.500
G25  21103963.917 8                  21103963.166 6  21103969.126 7  21103968.124 6  21103970.328 8 110902181.60408                  86417342.05207  86417347.03906  82816648.70908        48.500                          40.750          46.000          40.750          51.500
G28  24477263.915 5  24477263.002 5                  24477270.390 4                  24477276.636 5                 128628891.20405 100230331.98404                  96054104.55205        30.000          30.000                          29.250                          35.250
G29  24372273.748 5                  24372273.413 3  24372283.389 5  24372282.329 3                 128077212.72805                  99800474.60905  99800478.56903                        35.750                          18.250          34.000          18.250
R03  23603909.788 6  23603910.919 6  23603921.794 5  23603921.083 5                 126353628.14806 126353608.13206  98275084.25805  98275079.23405                        37.250          38.250          32.000          30.500
R09  21466771.275 8  21466772.111 8  21466780.723 7  21466781.000 7  21466767.407 7 114631366.91108 114631374.91508  89157753.31607  89157744.32107  86071507.90007        49.000          48.500          46.750          46.500          44.500
R10  19349394.738 8  19349394.393 8                                                 103143253.36008 103143250.36808                                                        48.750          48.500
R11  21014796.237 8  21014796.184 8  21014803.769 8  21014803.380 8  21014791.508 7 112296774.18808 112296773.20008  87341996.16008  87341981.17008  84259409.39407        51.250          51.500          48.500          48.500          47.500
R19  22175008.162 6  22175008.565 6  22175019.327 7  22175018.455 7                 118621446.34006 118621459.34306  92261257.66607  92261225.66607                        37.250          36.000          43.000          42.750
R20  19196390.157 7  19196390.492 6  19196399.573 7  19196399.014 7                 102651906.43107 102651886.44406  79840435.91907  79840470.93107                        42.000          41.500          45.000          45.250
R21  22079092.817 7  22079093.040 7  22079104.141 7  22079104.324 7  22079091.197 7 118149780.15207 118149762.16207  91894380.50807  91894376.50907  88526753.89307        47.750          47.750          43.750          44.250          43.000
> 2024 02 29 23 07 30.0000000  0 31
C06                  40567590.849 5                  40567596.379 6  40567597.796 6                 211246094.81505                 171654793.36206 163348928.42106                        35.750                          39.500          39.500
C12                  24003927.749 7                  24003932.075 8  24003932.271 8                 124994862.84907                 101568652.18008  96654058.60908                        44.500                          48.000          48.500
C16                  40488449.585 6                  40488456.854 5  40488460.073 6                 210834008.31506                 171319943.90905 163030288.13506                        39.750                          35.750          39.000
C19  27025547.416 5  27025546.589 5  27025561.685 6  27025554.631 6                 142020212.83105 140729125.59805 106054129.06206 114353987.03506                        32.500          34.500          36.500          38.250
C20  26324618.692 5  26324617.145 6  26324631.110 6  26324624.079 6                 138336820.77405 137079223.03606 103303541.16806 111388131.82606                        34.750          37.500          38.750          40.000
C24  22065625.386 8  22065623.333 8  22065628.118 8  22065627.593 9                 115955744.90308 114901585.26408  86590384.26908  93367004.50709                        50.750          52.500          52.750          54.000
C26  23065706.287 8  23065704.320 8  23065713.134 8  23065711.075 8                 121211133.80808 120109208.25908  90514845.45708  97598617.33608                        48.250          50.250          48.500          50.250
C29  25741735.282 6  25741732.380 6  25741744.901 6  25741742.221 6                 135273769.19406 134044005.59206 101016190.40206 108921784.77906                        36.750          38.250          38.500          40.250
C34  26533704.883 5  26533704.422 6  26533721.575 5  26533718.260 6                 139435582.55605 138167986.09006 104124058.10305 112272868.31906                        33.250          36.500          34.250          37.500
C35  21660212.330 8  21660210.242 8  21660217.795 8  21660215.830 8                 113825330.05108 112790548.23908  84999550.71408  91651649.58208                        50.000          52.250          50.750          53.250
E13  23754717.295 8  23754724.968 8  23754719.907 8  23754721.478 8  23754722.955 9 124832095.55708  93218932.81908 101324860.31908  95650699.67508  94434824.82209        49.250          51.750          53.750          52.750          55.250
E15  24469041.396 7  24469049.696 8  24469045.166 8  24469046.429 8  24469047.794 8 128585843.70007  96022029.22708 104371714.49708  98526931.09708  97274486.23708        47.000          49.500          51.500          50.750          53.250
E21  23615945.791 8  23615952.257 8  23615949.726 9  23615948.699 8  23615950.221 9 124102725.46708  92674187.50008 100732779.42909  95091760.07208  93882980.36009        49.500          52.250          54.500          53.500          56.000
E26  27188455.808 6  27188470.859 6  27188466.231 6  27188466.944 7  27188468.573 7 142876340.15606 106693455.93406 115971122.35306 109476746.14307 108085110.61307        36.750          41.500          41.750          42.500          45.000
E27  24595589.882 7  24595597.649 8  24595594.904 8  24595594.454 8  24595595.703 8 129250710.81107  96518426.06808 104911316.24108  99036288.75508  97777362.48608        47.250          49.250          51.000          50.250          52.750
G06  21415380.256 8                  21415380.140 6  21415385.295 7  21415384.812 6  21415386.551 8 112538764.72308                  87692657.85607  87692655.85106  84038822.77708        48.250                          41.250          46.000          41.250          51.250
G11  20707688.776 8  20707688.922 8  20707688.557 7  20707690.913 8  20707690.577 7  20707695.486 9 108819867.70908 108819856.70708  84794827.30608  84794825.30207  81261746.72509        50.000          49.000          45.250          50.250          45.250          55.000
G12  20179371.193 8                  20179370.840 8  20179371.877 8  20179371.542 8                 106043413.01708                  82631286.57908  82631280.57208                        52.000                          49.500          49.250          49.500
G19  23343258.119 6                  23343256.827 4                  23343261.491 4                 122669708.17506                                  95586832.30804                        40.250                          25.500                          25.500
G20  23446483.105 6                  23446481.903 3                  23446488.998 3                 123212200.51006                                  96009558.92603                        40.000                          23.250                          23.250
G24  24157104.902 6                  24157104.786 4  24157115.187 6  24157114.981 4  24157117.824 7 126946373.70906                  98919266.18106  98919256.18604  94797633.37507        39.750                          25.500          39.250          25.500          43.750
G25  21090860.464 8                  21090859.713 6  21090866.196 7  21090865.109 6  21090867.058 8 110833324.64608                  86363687.34107  86363692.33506  82765229.62908        48.500                          41.000          45.750          41.000          51.500
G28  24462816.305 4  24462817.592 4                  24462824.363 4                  24462831.848 5                 128552982.69004 100171182.43604                  95997419.69905        29.500          29.500                          29.500                          34.750
G29  24354314.260 6                  24354313.934 3  24354320.771 5  24354319.930 3                 127982825.98006                  99726926.72905  99726930.72403                        40.250                          21.750          33.000          21.750
R03  23598791.991 6  23598794.875 6  23598803.438 5  23598804.211 5                 126326237.01506 126326217.02706  98253780.01005  98253775.02305                        36.250          36.750          34.500          35.500
R09  21488506.157 8  21488506.170 8  21488515.381 7  21488515.153 7  21488502.540 7 114747427.22108 114747435.22008  89248022.30507  89248013.29007  86158652.20507        48.750          48.250          46.750          46.000          44.750
R10  19355142.809 8  19355142.572 8                                                 103173894.20408 103173891.20808                                                        48.750          48.500
R11  20996860.968 8  20996861.344 8  20996867.927 8  20996867.949 8  20996856.180 7 112200934.11608 112200933.12408  87267453.97608  87267438.96208  84187498.03207        51.250          51.750          48.500          48.750          47.250
R19  22196121.024 6  22196120.822 5  22196130.159 6  22196130.150 7                 118734382.97306 118734395.96805  92349097.16306  92349065.14307                        36.750          35.750          41.750          42.000
R20  19196100.648 7  19196100.778 6  19196109.786 7  19196109.272 7                 102650357.02707 102650337.03806  79839230.85007  79839265.84007                        42.250          41.750          45.250          45.000
R21  22059123.902 8  22059123.925 8  22059133.916 7  22059134.667 7  22059120.740 7 118042917.67708 118042899.68108  91811265.38107  91811261.37507  88446684.63307        48.500          48.250          44.500          44.500          42.500
> 2024 02 29 23 08 00.0000000  0 32
C06                  40562469.221 6                  40562475.086 6  40562476.717 6                 211219427.09806                 171633123.68306 163328307.31006                        36.250                          39.500          39.500
C12                  23989016.370 7                  23989020.554 8  23989021.421 8                 124917217.16007                 101505558.88408  96594018.27008                        44.500                          48.000          49.000
C16                  40484162.053 6                  40484169.362 6  40484172.885 6                 210811682.33506                 171301802.27706 163013024.35206                        39.250                          36.000          39.250
C19  27010435.203 5  27010434.524 5  27010449.548 6  27010443.031 6                 141940800.66105 140650435.38505 105994828.08106 114290045.01706                        31.750          34.500          36.250          38.250
C20  26318377.164 5  26318375.264 6  26318388.531 6  26318382.899 6                 138304021.17605 137046721.60506 103279048.07606 111361721.81306                        35.750          37.000          38.500          40.750
C24  22062759.758 8  22062757.697 8  22062762.477 8  22062761.612 9                 115940685.69608 114886662.95708  86579138.76708  93354878.92209                        50.250          52.500          52.750          54.000
C26  23080076.551 7  23080074.365 8  23080083.111 8  23080081.258 8                 121286648.88307 120184036.82508  90571236.50008  97659421.61208                        47.750          50.250          48.500          50.250
C29  25759114.277 6  25759111.854 6  25759123.797 6  25759120.692 6                 135365092.26706 134134498.41806 101084386.07306 108995317.55406                        37.250          39.250          39.250          40.500
C34  26515949.020 5  26515947.973 6  26515965.440 5  26515960.425 6                 139342269.34305 138075521.23406 104054376.37305 112197733.16906                        33.750          36.500          35.000          36.500
C35  21666072.971 8  21666070.848 8  21666078.239 8  21666076.346 8                 113856127.11808 112821065.33708  85022548.51308  91676447.21008                        50.000          52.250          50.750          53.250
E13  23746548.059 8  23746555.705 8  23746550.617 8  23746552.425 8  23746553.732 9 124789166.33408  93186875.33508 101290015.19908  95617805.89308  94402349.18809        49.500          51.750          53.750          53.000          55.500
E15  24477855.530 7  24477863.888 8  24477859.184 8  24477860.514 8  24477861.830 8 128632161.72107  96056617.35008 104409310.28508  98562421.52008  97309525.50908        47.500          49.750          51.750          50.750          53.250
E21  23611820.386 8  23611826.794 8  23611824.241 9  23611823.286 8  23611824.727 9 124081046.12308  92657998.41108 100715182.58109  95075148.65408  93866580.10709        50.000          52.250          54.750          53.500          56.000
E26  27170612.623 6  27170626.087 6  27170621.464 6  27170623.026 7  27170624.584 7 142782570.04406 106623433.13406 115895010.48306 109404896.63707 108014174.46007        38.750          40.750          41.250          42.000          44.250
E27  24606641.634 7  24606649.634 8  24606646.692 8  24606646.376 8  24606647.562 8 129308788.54807  96561795.75708 104958457.22508  99080789.82908  97821297.86708        47.750          49.250          51.000          50.500          53.000
G06  21427303.040 8                  21427302.929 6  21427308.428 7  21427307.722 6  21427309.536 8 112601420.74808                  87741480.71207  87741478.71206  84085611.34708        48.250                          40.750          46.000          40.750          51.000
G11  20704707.677 8  20704707.690 8  20704707.454 7  20704709.752 8  20704709.238 7  20704714.317 9 108804201.23608 108804190.23208  84782619.68808  84782617.68607  81250047.76509        50.000          49.750          45.250          50.500          45.250          55.250
G12  20177691.972 8                  20177691.619 8  20177692.665 8  20177692.276 8                 106034588.29208                  82624410.17508  82624404.17108                        52.250                          49.500          49.500          49.500
G19  23361350.486 6                  23361349.185 4                  23361353.061 4                 122764780.82106                                  95660914.76304                        40.500                          25.000                          25.000
G20  23428622.365 6                  23428621.163 3                  23428628.625 3                 123118343.32406                                  95936423.69403                        39.750                          23.500                          23.500
G24  24177610.720 6                  24177610.600 4  24177622.041 6  24177621.013 4  24177623.936 7 127054133.89506                  99003234.97306  99003224.99104  94878103.41507        38.500                          24.250          39.250          24.250          44.000
G25  21077831.339 8                  21077830.588 6  21077836.159 7  21077835.439 6  21077837.473 8 110764853.64908                  86310333.38507  86310338.36906  82714098.75708        49.000                          41.000          45.750          41.000          51.750
G28  24448452.549 5  24448452.700 5                  24448459.591 5                  24448463.548 5                 128477486.99605 100112354.72205                  95941043.12705        30.750          30.500                          33.750                          33.250
G29  24336371.233 6                  24336370.912 3  24336378.280 5  24336378.191 3                 127888537.84906                  99653455.78005  99653459.77503                        40.750                          23.750          34.250          23.750
R03  23593809.851 6  23593810.884 6  23593821.347 5  23593821.879 5                 126299563.87106 126299543.88806  98233034.25805  98233029.25505                        37.500          37.000          34.750          35.250
R04  24380077.373 5                                  24380089.778 5  24380079.198 5 130554298.30015                                                  97752509.90115        31.000                                          32.000          31.000
R09  21510310.163 8  21510310.274 8  21510319.101 7  21510319.347 7  21510306.554 7 114863858.60908 114863866.61708  89338579.91707  89338570.92307  86246075.13807        48.750          48.250          46.500          46.250          45.250
R10  19361029.596 8  19361029.193 8                                                 103205272.47608 103205269.47608                                                        49.250          48.750
R11  20979010.160 8  20979010.070 8  20979016.144 8  20979015.826 8  20979004.420 7 112105540.22708 112105539.23308  87193258.84408  87193243.84008  84115921.47607        52.000          52.000          48.250          48.250          47.500
R19  22217263.743 6  22217263.649 6  22217272.516 6  22217272.158 7                 118847479.04706 118847492.06206  92437060.67706  92437028.68507                        37.500          36.000          41.500          42.250
R20  19195931.306 7  19195930.957 6  19195939.810 7  19195939.394 7                 102649448.53707 102649428.54306  79838524.25907  79838559.26107                        42.250          41.750          45.250          45.250
R21  22039212.968 8  22039213.411 8  22039224.189 7  22039224.270 7  22039211.044 7 117936375.50208 117936357.50908  91728399.40807  91728395.40907  88366855.36907        48.750          48.250          44.000          44.000          43.250
> 2024 02 29 23 08 30.0000000  0 32
C06                  40557374.540 6                  40557379.784 6  40557380.628 6                 211192893.80406                 171611563.26406 163307790.15406                        36.750                          39.500          39.250
C12                  23974147.304 7                  23974152.503 8  23974152.587 8                 124839793.31607                 101442645.82908  96534149.45408                        44.500                          48.500          49.000
C16                  40479901.008 6                  40479909.033 6  40479912.100 6                 210789497.95206                 171283775.69106 162995870.06506                        38.500                          36.000          38.750
C19  26995351.137 5  26995351.083 5  26995365.348 6  26995358.245 6                 141861531.91405 140571887.24005 105935634.13906 114226218.39206                        31.750          35.500          36.500          37.750
C20  26312220.478 5  26312219.762 6  26312232.037 6  26312226.012 6                 138271668.54005 137014663.08106 103254888.72306 111335671.69106                        35.500          37.750          38.750          40.750
C24  22059988.707 8  22059986.632 8  22059990.979 8  22059990.114 9                 115926121.92408 114872231.57808  86568263.23308  93343152.25309                        50.750          52.750          53.000          54.000
C26  23094511.915 8  23094510.028 8  23094518.748 8  23094516.886 8                 121362508.47008 120259206.77608  90627884.80908  97720503.29908                        48.000          50.250          48.500          50.250
C29  25776496.605 5  25776496.963 6  25776507.874 6  25776504.787 6                 135456444.98305 134225020.67706 101152603.88206 109068874.18506                        35.250          39.500          39.250          40.750
C34  26498204.356 5  26498202.746 5  26498222.211 5  26498217.407 6                 139249027.75605 137983127.22805 103984748.07705 112122655.63606                        33.000          35.000          35.250          37.000
C35  21671995.474 8  21671993.239 8  21672000.858 8  21671998.885 8                 113887250.42408 112851905.70008  85045789.92608  91701507.52108                        50.000          52.250          50.750          53.250
E13  23738450.250 8  23738457.856 8  23738452.880 9  23738454.693 8  23738455.941 9 124746612.38608  93155098.07208 101255474.68609  95585199.65608  94370157.43809        49.000          52.000          54.000          53.000          55.500
E15  24486731.804 7  24486740.090 8  24486735.628 8  24486736.618 8  24486738.028 8 128678806.44307  96091449.43708 104447171.25708  98598162.27408  97344811.93008        47.000          49.750          52.000          50.750          53.500
E21  23607751.532 8  23607758.002 8  23607755.503 9  23607754.677 8  23607756.056 9 124059665.22308  92642032.18108 100697827.97209  95058765.91208  93850405.62109        49.000          52.500          54.750          53.750          56.250
E26  27152787.926 6  27152801.976 6  27152797.259 6  27152797.547 6  27152799.811 7 142688902.38606 106553486.82606 115818981.75306 109333125.59606 107943315.78707        37.750          41.500          41.750          41.000          44.250
E27  24617742.102 7  24617749.569 8  24617746.663 8  24617746.401 8  24617747.659 8 129367119.73107  96605354.69908 105005803.92408  99125485.09808  97865424.97208        47.250          49.250          51.000          50.500          53.000
G06  21439312.455 8                  21439312.353 6  21439317.995 7  21439317.167 6  21439319.192 8 112664530.82208                  87790657.37707  87790655.37406  84132738.96908        48.000                          40.750          46.000          40.750          51.000
G11  20701836.914 8  20701837.029 8  20701836.682 7  20701838.631 8  20701838.461 7  20701843.723 9 108789115.52308 108789104.52308  84770864.61308  84770862.61007  81238782.49009        50.000          49.500          45.250          50.250          45.250          55.250
G12  20176111.634 8                  20176111.281 8  20176112.693 8  20176112.014 8                 106026283.66908                  82617939.04008  82617933.04108                        52.250                          49.750          49.750          49.750
G19  23379462.958 6                  23379461.675 4                  23379466.115 4                 122859964.12906                                  95735083.46204                        40.000                          24.750                          24.750
G20  23410800.235 6                  23410799.015 3                  23410805.905 3                 123024690.00706                                  95863447.29103                        39.000                          22.750                          22.750
G24  24198134.067 6                  24198133.960 4  24198143.726 6  24198143.949 4  24198146.515 7 127161980.27706                  99087270.92606  99087260.93204  94958637.82807        39.750                          25.250          38.500          25.250          43.250
G25  21064876.480 8                  21064875.729 6  21064881.569 7  21064880.670 6  21064883.021 8 110696776.58608                  86257286.36207  86257291.36106  82663262.04808        48.500                          41.250          46.000          41.250          52.000
G28  24434166.158 5  24434166.411 5                  24434172.958 5                  24434177.264 5                 128402412.24505 100053855.06405                  95884980.92605        30.500          30.500                          32.500                          34.250
G29  24318449.332 7                  24318449.011 4  24318456.554 6  24318455.793 4                 127794354.77407                  99580066.71706  99580070.69504                        42.000                          26.000          36.000          26.000
R03  23588963.176 6  23588963.837 6  23588973.348 5  23588975.096 5                 126273616.72006 126273596.72506  98212853.19205  98212848.21905                        37.250          36.750          33.500          33.250
R04                                                  24361987.094 5  24361978.611 5                                                                  97679936.77305                                                        30.750          31.750
R09  21532184.468 8  21532184.540 8  21532192.906 7  21532193.465 7  21532180.820 7 114980664.38408 114980672.40008  89429428.70207  89429419.71107  86333779.17707        49.000          48.250          46.500          46.250          45.250
R10  19367055.653 8  19367055.434 8                                                 103237394.13808 103237391.14508                                                        49.500          48.750
R11  20961242.159 8  20961242.633 8  20961249.516 8  20961249.457 8  20961238.247 8 112010601.88608 112010600.89408  87119418.00008  87119403.00608  84044686.71608        50.750          51.250          48.250          48.750          48.000
R19  22238435.999 6  22238435.584 5  22238445.483 6  22238444.455 6                 118960737.75706 118960750.78405  92525150.66006  92525118.66806                        36.250          35.500          41.000          41.750
R20  19195881.761 7  19195882.024 6  19195891.252 7  19195890.345 7                 102649186.31407 102649166.31106  79838320.31007  79838355.31507                        42.000          41.750          45.500          45.250
R21  22019364.129 8  22019364.648 8  22019374.844 7  22019374.925 7  22019361.516 7 117830161.05108 117830143.05508  91645788.30907  91645784.31807  88287271.68207        49.000          48.500          43.750          43.500          43.000
> 2024 02 29 23 09 00.0000000  0 33
C06                  40552303.888 6                  40552309.305 6  40552309.068 6                 211166490.01706                 171590108.07906 163287373.11506                        37.250                          38.750          38.500
C12                  23959320.765 7                  23959325.127 8  23959325.918 8                 124762586.63207                 101379909.21308  96474448.53308                        44.500                          48.000          49.500
C16                  40475666.714 6                  40475675.177 6  40475677.703 6                 210767450.10606                 171265860.05806 162978821.34006                        38.000                          36.000          38.500
C19  26980292.744 5  26980292.476 5  26980307.438 6  26980300.518 6                 141782403.62705 140493478.27805 105876545.06006 114162504.88506                        32.500          35.500          36.750          36.750
C20  26306148.593 5  26306147.891 6  26306159.325 6  26306154.114 6                 138239758.84705 136983043.48806 103231060.09806 111309978.21606                        34.500          38.250          38.000          40.000
C24  22057310.744 8  22057308.709 8  22057312.922 8  22057312.285 8                 115912048.89708 114858286.48908  86557754.16308  93331820.72908                        50.750          53.000          52.750          53.750
C25                  25594690.695 5  25594700.542 5  25594696.985 5                                 133278271.87315 100439102.62415 108299538.66115                                        34.500          33.500          34.250
C26  23109012.284 8  23109009.387 8  23109018.701 8  23109016.522 8                 121438705.41308 120334711.02308  90684785.03908  97781856.61808                        48.000          50.000          48.500          49.750
C29  25793886.268 6  25793883.045 6  25793895.530 6  25793893.086 6                 135547820.83206 134315565.84506 101220838.98706 109142449.47106                        36.500          38.750          38.750          40.000
C34  26480475.117 5  26480474.093 6  26480491.903 6  26480486.580 6                 139155852.99305 137890799.54306 103915169.65206 112047631.89606                        34.500          37.750          36.000          36.750
C35  21677978.668 8  21677976.701 8  21677984.280 8  21677982.280 8                 113918693.40808 112883062.84008  85069270.06408  91726825.24108                        49.750          52.500          50.750          53.000
E13  23730423.037 8  23730430.509 8  23730425.595 8  23730427.260 8  23730428.607 9 124704428.73208  93123597.33108 101221234.73208  95552877.15208  94338245.81509        49.000          51.500          53.750          53.250          55.250
E15  24495668.988 7  24495677.131 8  24495672.512 8  24495673.605 8  24495675.108 8 128725770.97007  96126520.34408 104485291.80908  98634148.07808  97380340.28508        47.250          49.500          51.750          50.750          53.250
E21  23603738.820 8  23603745.215 8  23603742.724 9  23603741.921 8  23603743.327 9 124038578.26508  92626285.45708 100680711.95509  95042608.39808  93834453.50209        49.250          52.250          54.500          53.750          56.000
E26  27134981.932 6  27134996.267 6  27134991.277 7  27134991.740 6  27134993.624 7 142595332.89806 106483613.90506 115743032.74707 109261429.83706 107872531.44507        38.750          41.500          42.500          41.250          44.500
E27  24628889.103 7  24628896.754 8  24628894.071 8  24628893.617 8  24628894.870 8 129425698.55807  96649098.56908 105053351.62808  99170370.11708  97909739.41708        47.000          49.000          50.750          50.500          52.750
G06  21451406.886 8                  21451406.788 6  21451412.667 7  21451411.791 6  21451413.699 8 112728087.13308                  87840181.76307  87840179.75706  84180199.83708        48.000                          40.750          46.250          40.750          51.000
G11  20699075.863 8  20699075.911 8  20699075.631 7  20699077.611 8  20699077.316 7  20699082.431 9 108774605.10008 108774594.10008  84759557.81308  84759555.80707  81227946.80709        50.250          49.500          45.000          50.500          45.000          55.250
G12  20174629.306 8                  20174628.958 8  20174630.348 8  20174629.843 8                 106018494.69908                  82611869.72608  82611863.72008                        52.250                          49.500          49.500          49.500
G19  23397594.665 6                  23397593.400 4                  23397598.712 4                 122955251.39606                                  95809333.16604                        39.000                          24.250                          24.250
G20  23393017.135 6                  23393015.915 3                  23393022.000 3                 122931238.39606                                  95790628.06903                        40.000                          22.250                          22.250
G24  24218671.324 6                  24218671.248 3  24218680.906 6  24218681.273 3  24218684.541 7 127269904.55706                  99171367.58906  99171357.58903  95039230.42707        39.250                          23.750          38.000          23.750          44.500
G25  21051996.282 8                  21051995.536 6  21052001.218 7  21052000.329 6  21052002.631 8 110629090.16908                  86204543.75107  86204548.75706  82612717.06108        48.750                          41.000          45.750          41.000          52.000
G28  24419958.344 4  24419957.564 3                  24419965.748 5                  24419971.932 5                 128327755.16903  99995680.95205                  95829230.77705        25.500          23.000                          32.000                          35.750
G29  24300545.901 7                  24300545.602 4  24300553.127 6  24300552.680 4                 127700272.17907                  99506755.89106  99506759.87804                        42.500                          27.750          37.500          27.750
R03  23584249.198 6  23584250.253 6  23584262.339 5  23584262.666 5                 126248391.33506 126248371.35106  98193233.54205  98193228.56205                        37.750          36.750          34.000          32.500
R04                                                  24343948.137 5  24343938.451 5                                                                  97607607.03705                                                        32.000          31.500
R09  21554127.263 8  21554127.527 8  21554135.705 7  21554135.629 7  21554123.552 7 115097835.62708 115097843.63108  89520561.74207  89520552.73407  86421757.61307        49.250          48.250          45.750          45.750          45.000
R10  19373219.823 8  19373219.313 8                                                 103270252.46208 103270249.46408                                                        49.000          48.750
R11  20943561.316 8  20943561.562 8  20943568.185 8  20943568.136 8  20943556.045 7 111916117.76608 111916116.77708  87045930.44008  87045915.43808  83973792.76007        51.500          52.000          48.250          48.750          47.750
R19  22259638.057 6  22259637.162 5  22259647.549 7  22259646.682 7                 119074150.52506 119074163.52205  92613360.45207  92613328.45307                        37.000          35.500          42.000          42.500
R20  19195952.133 7  19195952.549 7  19195961.522 7  19195960.900 7                 102649563.37307 102649543.37907  79838613.60907  79838648.60107                        42.000          42.000          45.250          45.500
R21  21999576.512 8  21999576.374 8  21999586.928 7  21999587.362 7  21999573.466 7 117724270.69608 117724252.69908  91563429.32607  91563425.32507  88207930.85307        49.250          48.750          44.000          44.000          43.750
> 2024 02 29 23 09 30.0000000  0 33
C06                  40547258.190 6                  40547264.059 6  40547263.607 6                 211140219.39206                 171568761.09206 163267059.06706                        37.000                          39.000          37.250
C12                  23944536.271 7                  23944541.157 8  23944541.456 8                 124685601.09707                 101317352.31008  96414918.62208                        44.750                          48.750          49.250
C16                  40471460.005 6                  40471468.235 6  40471470.296 6                 210745542.52006                 171248058.44006 162961881.10706                        37.500                          36.250          38.500
C19  26965262.490 5  26965262.772 5  26965277.407 6  26965270.832 6                 141703421.75905 140415214.46805 105817565.37206 114098909.26406                        31.000          34.000          36.750          37.000
C20  26300161.427 5  26300160.117 6  26300172.472 6  26300166.943 6                 138208296.82305 136951867.46706 103207565.80106 111284645.18906                        34.750          37.000          37.750          40.000
C24  22054726.755 8  22054724.582 8  22054729.268 8  22054728.354 9                 115898470.68308 114844831.71008  86547614.58808  93320887.62409                        50.750          52.750          52.750          54.000
C25  25577827.800 5  25577824.876 5  25577836.135 5  25577833.308 6                 134412384.46315 133190458.23505 100372926.06905 108228182.99406                        34.500          34.750          33.500          36.000
C26  23123576.534 7  23123573.919 8  23123582.982 8  23123581.134 8                 121515241.37407 120410551.19508  90741938.42408  97843482.91608                        47.750          49.750          48.000          50.000
C29  25811279.723 6  25811276.942 6  25811288.863 6  25811286.523 6                 135639222.15406 134406136.23206 101289093.08806 109216045.24506                        36.000          38.500          38.250          40.000
C34  26462758.048 5  26462755.454 5  26462774.973 6  26462769.789 6                 139062749.16305 137798542.09205 103845644.11906 111972665.24206                        34.750          35.250          36.250          36.500
C35  21684023.364 8  21684021.459 8  21684028.940 8  21684026.886 8                 113950458.22708 112914538.88508  85092990.54008  91752402.10308                        49.750          52.250          50.500          53.250
E13  23722467.037 8  23722474.371 8  23722469.421 8  23722471.028 8  23722472.465 9 124662619.12908  93092375.92208 101187298.40408  95520841.26508  94306617.16809        49.250          51.750          53.750          53.000          55.500
E15  24504667.431 7  24504675.507 8  24504670.763 8  24504671.936 8  24504673.400 8 128773057.18407  96161831.47508 104523673.47508  98670380.36908  97416111.99608        47.250          50.000          51.500          50.750          53.250
E21  23599783.054 8  23599789.153 8  23599786.828 9  23599786.003 8  23599787.346 9 124017789.51608  92610761.41308 100663837.99009  95026679.38008  93818726.97109        49.250          52.500          54.750          53.750          56.250
E26  27117196.036 6  27117209.924 7  27117205.842 7  27117205.289 6  27117207.088 7 142501866.27106 106413817.75307 115667167.25607 109189812.87106 107801824.88707        39.250          42.000          44.000          41.250          44.500
E27  24640083.936 7  24640091.739 8  24640088.931 8  24640088.244 8  24640089.775 8 129484527.93007  96693029.54008 105101102.70208  99215447.11608  97954243.40208        47.250          49.250          50.750          50.250          52.750
G06  21463586.424 7                  21463586.322 6  21463592.433 7  21463591.606 6  21463593.224 8 112792090.66107                  87890054.60807  87890052.60506  84227994.64708        47.750                          40.500          46.500          40.500          51.000
G11  20696424.657 8  20696424.786 8  20696424.425 7  20696426.352 8  20696426.235 7  20696431.189 9 108760673.29408 108760662.29308  84748701.87908  84748699.87407  81217543.20909        50.250          49.500          45.000          50.250          45.000          55.000
G12  20173246.105 8                  20173245.766 8  20173246.887 8  20173246.471 8                 106011225.11708                  82606205.11508  82606199.11708                        52.000                          49.250          49.500          49.250
G19  23415747.875 6                  23415746.623 3                  23415751.886 3                 123050645.05506                                  95883665.77003                        38.250                          23.250                          23.250
G20  23375273.827 6                  23375272.607 3                  23375278.441 3                 122837994.58006                                  95717970.76703                        40.500                          23.000                          23.000
G24  24239223.689 6                  24239223.605 3  24239233.790 6  24239233.625 3  24239236.875 7 127377907.24406                  99255525.33806  99255515.35703  95119881.53607        39.250                          23.500          38.000          23.500          44.250
G25  21039190.929 8                  21039190.178 6  21039196.125 7  21039195.320 6  21039197.590 8 110561799.86108                  86152109.80807  86152114.80306  82562467.87808        48.750                          40.500          45.500          40.500          52.000
G28  24405835.646 5  24405837.438 4                  24405839.482 5                  24405845.764 5                 128253522.08804  99937837.04205                  95773797.05205        30.000          29.500                          31.250                          35.000
G29  24282661.611 6                  24282661.325 4  24282668.547 6  24282668.788 4                 127606293.98106                  99433526.45606  99433530.43104                        41.750                          27.750          37.250          27.750
R03  23579673.504 6  23579674.251 6  23579686.721 6  23579686.323 6                 126223892.50806 126223872.51706  98174178.99906  98174174.00506                        41.000          39.000          37.750          36.500
R04                                                  24325972.380 5  24325961.049 5                                                                  97535526.46205                                                        32.750          31.250
R09  21576137.726 8  21576138.124 8  21576147.420 7  21576146.848 7  21576134.520 7 115215372.99608 115215380.99708  89611979.54707  89611970.52707  86510010.95007        48.500          48.250          46.250          45.750          44.750
R10  19379522.455 8  19379522.160 8                                                 103303850.94708 103303847.95208                                                        48.750          48.750
R11  20925966.121 8  20925966.363 8  20925973.152 8  20925973.215 8  20925960.878 7 111822095.02408 111822094.03408  86972801.72908  86972786.72808  83903245.01207        51.750          52.000          49.000          49.000          47.750
R19  22280868.110 6  22280867.094 6  22280877.826 7  22280877.343 7                 119187718.05306 119187731.05406  92701690.61607  92701658.63007                        36.750          36.000          42.250          42.250
R20  19196142.366 7  19196142.611 7  19196151.589 7  19196151.254 7                 102650581.63107 102650561.64007  79839405.60107  79839440.59907                        42.000          42.000          45.250          45.500
R21  21979848.882 8  21979849.695 8  21979860.626 7  21979860.661 7  21979847.007 7 117618709.76708 117618691.77708  91481326.59407  91481322.58207  88128836.88307        49.000          48.750          44.500          44.500          43.500
> 2024 02 29 23 10 00.0000000  0 34
C06                  40542238.538 6                  40542243.755 6  40542243.311 6                 211114078.61706                 171547519.62706 163246845.44306                        36.500                          38.250          37.250
C12                  23929793.572 7                  23929798.655 8  23929798.976 8                 124608833.56507                 101254972.53908  96355557.26308                        44.750                          48.750          49.250
C16                  40467278.746 6                  40467287.196 6  40467288.894 6                 210723771.86406                 171230368.05906 162945046.71606                        36.500                          36.250          38.750
C19  26950260.003 5  26950259.905 5  26950274.889 5  26950267.997 6                 141624585.00805 140337094.41405 105758694.00205 114035430.48806                        31.750          33.500          35.000          37.500
C20  26294259.260 5  26294257.243 6  26294270.685 6  26294264.758 6                 138177280.04605 136921132.64206 103184403.98706 111259670.65006                        35.250          37.500          38.250          40.250
C24  22052236.271 8  22052234.299 8  22052238.918 8  22052238.161 9                 115885384.10308 114831864.10208  86537842.15008  93310350.38109                        50.500          52.500          52.500          54.250
C25  25561002.560 5  25561001.616 6  25561010.711 5  25561009.270 6                 134323972.11505 133102849.70506 100306904.12005 108156994.02106                        34.000          36.250          33.500          37.750
C26  23138203.957 7  23138201.798 8  23138210.491 7  23138209.027 8                 121592110.81707 120486721.82708  90799340.84207  97905377.72408                        47.750          49.750          47.500          50.250
C29  25828676.484 6  25828675.215 6  25828686.407 6  25828683.575 6                 135730644.02006 134496726.95706 101357362.54306 109289657.56606                        36.250          39.750          38.250          40.500
C34  26445052.591 5  26445051.781 6  26445070.231 6  26445065.427 6                 138969713.10805 137706351.86806 103776169.14206 111897753.12506                        34.500          36.500          36.000          37.250
C35  21690128.335 8  21690126.569 8  21690133.862 8  21690131.817 8                 113982539.90508 112946328.91608  85116947.62908  91778234.10108                        49.750          52.250          50.250          53.250
E13  23714581.308 8  23714588.726 8  23714583.817 9  23714585.370 8  23714586.843 9 124621180.09308  93061431.23608 101153662.85809  95489089.31808  94275268.85109        49.250          51.750          54.000          53.000          55.500
E15  24513725.954 7  24513733.981 8  24513729.049 8  24513730.522 8  24513731.878 8 128820659.74107  96197378.82708 104562311.90508  98706855.04708  97452123.01208        47.250          49.750          51.500          50.750          53.250
E21  23595883.222 8  23595889.415 8  23595887.144 9  23595886.144 8  23595887.540 9 123997296.02408  92595457.85408 100647203.67709  95010976.59408  93803223.79809        49.500          52.250          55.000          53.750          56.000
E26  27099427.520 6  27099442.231 6  27099438.238 7  27099437.596 6  27099439.524 7 142408499.79106 106344096.43706 115591383.06407 109118272.65506 107731194.12207        37.250          41.000          43.750          40.750          44.000
E27  24651325.608 7  24651333.527 8  24651330.782 8  24651329.849 8  24651331.581 8 129543603.59007  96737144.41808 105149053.68508  99260712.83008  97998933.69808        46.750          49.000          50.750          50.000          52.500
G06  21475849.978 8                  21475849.880 6  21475855.531 7  21475854.945 6  21475856.805 8 112856535.13008                  87940271.05007  87940269.04706  84276118.73908        48.000                          40.500          46.000          40.500          51.250
G11  20693882.745 8  20693882.811 8  20693882.522 7  20693884.694 8  20693884.408 7  20693889.447 9 108747316.20808 108747305.20608  84738293.77708  84738291.77507  81207568.78609        50.000          49.250          45.250          50.250          45.250          55.250
G12  20171961.108 8                  20171960.764 8  20171962.001 8  20171961.443 8                 106004472.19908                  82600943.11208  82600937.10908                        52.250                          49.500          49.500          49.500
G19  23433920.517 6                  23433919.221 3                  23433923.790 3                 123146139.96506                                  95958077.24303                        39.250                          23.500                          23.500
G20  23357569.496 6                  23357568.325 3                  23357573.981 3                 122744957.81706                                  95645474.79703                        41.000                          23.750                          23.750
G24  24259789.548 6                  24259789.481 3  24259800.333 6  24259799.787 3  24259802.188 7 127485981.56506                  99339738.94006  99339728.93703  95200586.17707        38.250                          23.750          38.750          23.750          42.750
G25  21026461.261 8                  21026460.510 6  21026466.380 7  21026465.499 6  21026467.833 8 110494903.95208                  86099983.18107  86099988.16906  82512513.20508        48.750                          41.250          45.750          41.250          52.000
G28                                                  24391795.286 5                  24391799.265 5                                  99880322.03905                  95718678.59005                                                        30.250                          34.750
G29  24264796.754 6                  24264796.441 4  24264803.859 6  24264804.132 4                 127512417.14206                  99360375.97806  99360379.95504                        40.750                          27.250          37.000          27.250
R02  24338389.624 4                                                                 129874330.88314                                                                        24.250
R03  23575232.064 6  23575233.406 6  23575245.246 6  23575244.481 6                 126200117.99406 126200098.01606  98155687.67106  98155682.68406                        41.250          40.000          38.500          38.000
R04                                  24308054.436 5  24308055.455 5  24308045.537 5                                 101242189.81515 101242208.83415  97463695.36705                                        30.750          31.250          31.250
R09  21598216.384 8  21598216.666 8  21598225.291 7  21598225.228 7  21598213.053 7 115333268.99408 115333276.99908  89703676.27807  89703667.28207  86598533.59107        48.750          48.250          46.250          45.750          45.000
R10  19385963.881 8  19385963.465 8                                                 103338184.64108 103338181.64608                                                        49.250          49.000
R11  20908457.782 8  20908457.720 8  20908463.878 8  20908463.825 8  20908452.574 8 111728533.40408 111728532.41108  86900031.66608  86900016.67008  83833043.21608        51.750          52.000          48.500          48.750          48.250
R19  22302124.602 6  22302125.630 5  22302134.680 6  22302134.541 6                 119301433.14006 119301446.16405  92790135.60706  92790103.60406                        36.500          35.500          41.250          41.250
R20  19196452.128 7  19196452.025 7  19196460.967 7  19196460.698 7                 102652235.73907 102652215.75007  79840692.14707  79840727.13907                        42.000          42.000          45.000          45.500
R21  21960183.333 8  21960183.588 8  21960194.201 7  21960194.492 7  21960181.306 7 117513475.96508 117513457.96508  91399478.30807  91399474.29307  88049988.03507        48.500          48.000          43.750          43.750          44.000
> 2024 02 29 23 10 30.0000000  0 33
C06                  40537244.075 5                  40537249.229 6  40537250.507 6                 211088073.28705                 171526388.20806 163226736.54906                        35.750                          37.500          38.000
C12                  23915094.825 7                  23915099.174 8  23915099.902 8                 124532289.80807                 101192774.58108  96296368.91108                        44.750                          48.750          50.000
C16                  40463125.319 5                  40463133.254 6  40463135.623 6                 210702143.63205                 171212793.43506 162928322.48306                        35.250                          36.000          39.000
C19  26935289.225 5  26935285.795 5  26935302.787 6  26935295.501 6                 141545901.08505 140259125.84805 105699936.68406 113972074.77006                        32.500          33.500          36.250          38.250
C20  26288442.761 5  26288441.370 6  26288454.221 6  26288447.986 6                 138146715.07505 136890845.57106 103161579.51806 111235059.91506                        35.000          38.250          39.000          40.000
C24  22049840.460 8  22049838.819 8  22049843.286 8  22049842.748 9                 115872795.10708 114819389.55808  86528441.28708  93300213.79409                        50.500          52.500          52.750          54.250
C25  25544218.923 5  25544215.082 5  25544228.130 5  25544225.212 6                 134235774.07705 133015453.48605 100241042.11305 108085977.57306                        34.500          34.250          35.250          37.500
C26  23152896.121 7  23152894.078 8  23152902.650 7  23152900.775 8                 121669317.25107 120563226.38408  90856994.91407  97967543.88008                        47.500          49.750          47.750          49.750
C29  25846077.923 6  25846075.997 6  25846088.182 6  25846084.947 6                 135822090.54506 134587342.17806 101425650.45206 109363289.77306                        37.000          39.250          39.250          40.000
C34  26427364.045 5  26427361.643 5  26427379.624 5  26427375.875 6                 138876750.90405 137614234.74905 103706749.25005 111822900.36006                        35.250          35.750          35.750          37.750
C35  21696294.246 8  21696292.462 8  21696299.921 8  21696297.898 8                 114014942.52208 112978436.96308  85141144.37708  91804324.51308                        49.750          52.000          50.500          53.000
E13  23706767.138 8  23706774.735 8  23706769.763 9  23706771.334 8  23706772.816 9 124580117.30608  93030767.50508 101120332.70209  95457625.66608  94244205.16009        49.250          51.750          54.000          53.000          55.500
E15  24522845.425 7  24522853.403 8  24522848.288 8  24522849.890 8  24522851.286 8 128868582.44707  96233165.25308 104601210.19808  98743575.03008  97488376.21608        47.500          49.750          51.250          50.500          53.250
E21  23592040.764 8  23592046.900 8  23592044.548 9  23592043.704 8  23592045.083 9 123977103.92508  92580379.36708 100630814.01209  94995504.75108  93787948.63309        49.500          52.250          54.750          53.750          56.000
E26  27081680.986 6  27081694.682 6  27081691.136 7  27081690.561 6  27081692.293 7 142315239.92506 106274454.71906 115515685.41307 109046814.15106 107660644.01107        38.000          40.000          43.000          41.000          43.500
E27  24662615.430 7  24662623.094 8  24662620.300 8  24662619.609 8  24662621.175 8 129602930.39607  96781446.84208 105197208.51608  99306170.98108  98043813.98608        47.250          49.000          50.750          50.000          52.500
G06  21488197.929 8                  21488197.836 6  21488203.460 7  21488202.762 6  21488204.792 8 112921423.43508                  87990833.34507  87990831.34406  84324574.26508        48.000                          40.750          46.250          40.750          51.250
G11  20691451.300 8  20691451.419 8  20691451.077 7  20691453.066 8  20691452.918 7  20691458.104 9 108734539.06508 108734528.06008  84728337.58308  84728335.58307  81198027.43909        50.000          49.250          45.250          50.500          45.250          55.250
G12  20170775.577 8                  20170775.233 8  20170776.185 8  20170775.733 8                 105998242.08008                  82596088.48308  82596082.48108                        52.250                          49.500          49.250          49.500
G19  23452112.905 6                  23452111.662 3                  23452115.816 3                 123241740.58206                                  96032571.11903                        38.250                          22.500                          22.500
G20  23339905.406 6                  23339904.239 3                  23339910.481 3                 122652136.22506                                  95573146.47403                        40.250                          23.500                          23.500
G24  24280369.939 6                  24280369.832 4  24280379.759 6  24280379.978 4  24280382.691 7 127594130.02106                  99424010.22906  99424000.23904  95281346.16407        39.000                          24.000          38.500          24.000          43.000
G25  21013807.896 8                  21013807.141 6  21013813.141 7  21013812.314 6  21013814.052 8 110428409.82708                  86048169.63207  86048174.62206  82462858.55908        49.000                          41.750          46.250          41.750          52.000
G28  24377828.728 5                                  24377831.535 4                  24377835.702 5                                  99823141.99404                  95663881.02805        31.250                                          28.500                          35.000
G29  24246953.580 7                  24246953.250 4  24246961.033 6  24246960.269 4                 127418647.41007                  99287308.93306  99287312.91904                        42.000                          28.500          38.250          28.500
R03  23570928.842 6  23570928.851 6  23570939.507 6  23570939.520 6                 126177074.14506 126177054.15806  98137764.72406  98137759.71906                        41.250          40.000          38.500          38.500
R04  24290192.722 4                  24290202.752 4                  24290194.242 4 130072934.65514                 101167840.41304                  97392120.82504        29.000                          28.250                          29.250
R09  21620361.745 8  21620362.161 8  21620370.871 7  21620371.117 7  21620358.799 7 115451526.35708 115451534.35908  89795654.08507  89795645.07007  86687327.54807        48.250          48.000          46.000          46.000          44.750
R10  19392543.752 8  19392543.220 8                                                 103373258.60508 103373255.60708                                                        49.000          49.000
R11  20891036.680 8  20891036.801 8  20891043.254 8  20891043.290 8  20891031.029 7 111635442.02308 111635441.03008  86827627.36608  86827612.35908  83763194.27007        52.250          52.000          48.500          48.750          47.250
R19  22323411.469 5  22323410.968 5  22323421.570 7  22323421.123 7                 119415298.16805 119415311.18005  92878697.14907  92878665.16807                        35.750          35.250          42.000          42.250
R20  19196881.041 7  19196881.229 7  19196890.331 7  19196889.611 7                 102654530.24507 102654510.25307  79842476.78107  79842511.77807                        42.250          42.000          45.000          45.500
R21  21940579.118 8  21940579.949 8  21940591.640 7  21940591.541 7  21940578.566 7 117408576.39208 117408558.39608  91317890.00507  91317886.00307  87971389.70207        48.250          48.000          44.250          44.000          44.500
> 2024 02 29 23 11 00.0000000  0 33
C06                  40532275.286 6                  40532280.596 6  40532282.067 6                 211062201.19206                 171505365.05706 163206730.67506                        36.250                          36.750          38.500
C12                  23900437.095 7                  23900441.828 8  23900442.512 8                 124455967.81107                 101130756.78908  96237352.03408                        44.750                          48.500          49.750
C16                  40458997.665 5                  40459006.517 6  40459009.239 6                 210680655.64505                 171195332.72406 162911706.67306                        34.750                          36.250          39.250
C19  26920344.305 5  26920343.424 5  26920358.694 6  26920351.354 6                 141467370.02005 140181308.68205 105641293.45006 113908842.03306                        32.750          35.250          36.250          37.750
C20  26282712.772 6  26282711.078 6  26282723.567 6  26282717.086 6                 138116600.56106 136861004.82106 103139091.45006 111210811.92606                        36.500          39.250          38.750          40.000
C24  22047539.580 8  22047537.246 8  22047541.753 8  22047541.238 9                 115860701.65608 114807406.04408  86519410.45708  93290476.20309                        50.750          52.500          52.500          54.000
C25  25527477.063 6  25527473.374 6  25527484.924 5  25527481.372 6                 134147789.70506 132928268.90906 100175339.67605 108015133.15106                        36.000          36.000          34.500          37.000
C26  23167651.467 7  23167649.084 8  23167657.884 7  23167656.067 8                 121746856.25007 120640060.47908  90914897.31707  98029977.80908                        47.500          49.750          47.500          49.750
C29  25863484.231 6  25863481.490 6  25863493.850 6  25863491.080 6                 135913558.12006 134677978.23106 101493954.01606 109436938.91406                        36.250          38.500          38.000          39.750
C34  26409686.945 5  26409684.436 5  26409704.411 6  26409698.949 6                 138783860.58105 137522188.87305 103637382.99306 111748105.49106                        35.000          35.750          36.000          38.250
C35  21702520.612 8  21702518.855 8  21702526.246 8  21702524.290 8                 114047662.20808 113010859.19708  85165577.90608  91830670.23108                        49.500          52.250          50.500          53.250
E13  23699024.200 8  23699031.895 8  23699026.995 9  23699028.544 8  23699029.944 9 124539428.42408  93000383.00308 101087306.04709  95426448.51408  94213424.33209        49.000          52.000          54.000          53.000          55.500
E15  24532024.694 7  24532032.967 8  24532027.910 8  24532029.284 8  24532030.828 8 128916821.09007  96269187.60708 104640364.93308  98780537.10608  97524868.43108        47.500          50.000          51.250          50.500          53.250
E21  23588255.324 8  23588261.445 8  23588259.103 9  23588258.300 8  23588259.642 9 123957211.44708  92565524.61708 100614667.53109  94980262.48408  93772900.12409        49.750          52.500          54.750          53.750          56.250
E26  27063954.027 6  27063967.071 6  27063963.203 6  27063963.187 6  27063965.438 7 142222085.22706 106204891.51706 115440073.10306 108975436.24006 107590173.45407        38.250          39.750          41.500          41.500          43.750
E27  24673952.239 8  24673959.867 8  24673957.207 8  24673956.449 8  24673957.948 8 129662505.22608  96825934.47008 105245564.66208  99351819.16908  98088881.89408        48.000          49.250          50.750          50.000          52.750
G06  21500629.185 7                  21500629.083 6  21500634.546 7  21500633.952 6  21500636.030 8 112986750.48707                  88041737.52307  88041735.51706  84373357.42508        47.750                          40.250          46.000          40.250          51.000
G11  20689129.600 8  20689129.648 8  20689129.377 7  20689131.634 8  20689131.281 7  20689136.494 9 108722339.02608 108722328.02708  84718831.08508  84718829.07907  81188917.04509        49.750          49.500          45.000          50.500          45.000          55.250
G12  20169689.002 8                  20169688.663 8  20169689.762 8  20169689.221 8                 105992532.75808                  82591639.67508  82591633.67008                        52.250                          49.250          49.250          49.250
G19  23470323.322 6                  23470322.155 3                  23470327.816 3                 123337442.71506                                  96107144.08603                        38.500                          23.000                          23.000
G20  23322283.442 6                  23322282.293 3                  23322288.132 3                 122559530.24506                                  95500986.18503                        40.500                          23.500                          23.500
G24  24300962.989 6                  24300962.869 4  24300973.313 6  24300972.974 4  24300976.000 7 127702346.92506                  99508334.93206  99508324.92904  95362157.29507        39.000                          24.000          38.250          24.000          43.500
G25  21001230.857 8                  21001230.102 6  21001235.645 7  21001235.046 6  21001236.870 8 110362316.88908                  85996668.69407  85996673.68506  82413503.50508        49.000                          41.500          45.750          41.500          52.000
G28  24363943.461 4                                                                  24363954.245 5                                                                  95609404.04605        26.250                                                                          35.250
G29  24229129.605 6                  24229129.270 4  24229136.670 6  24229136.451 4                 127324982.84506                  99214323.82206  99214327.80404                        41.000                          27.250          38.000          27.250
R03  23566758.918 6  23566758.932 6  23566771.353 6  23566771.371 6                 126154760.23106 126154740.21406  98120409.37906  98120404.38006                        39.000          38.250          40.750          40.250
R04  24272412.659 5                  24272417.457 4                  24272405.857 4 129977687.04105                 101093759.08804                  97320804.27404        32.250                          28.750                          26.000
R09  21642574.399 8  21642574.618 7  21642583.735 7  21642583.601 7  21642571.399 7 115570138.80008 115570146.81207  89887908.06507  89887899.06407  86776388.13507        48.250          47.500          46.000          45.750          44.750
R10  19399261.491 8  19399261.017 8                                                 103409069.07908 103409066.08008                                                        49.000          48.750
R11  20873704.146 8  20873704.298 8  20873710.488 8  20873710.501 8  20873699.014 8 111542821.94408 111542820.95108  86755589.58808  86755574.58708  83693698.94308        52.000          52.250          48.500          49.000          48.000
R19  22344724.517 6  22344723.833 5  22344735.038 7  22344734.381 7                 119529307.49506 119529320.48305  92967370.96107  92967338.97407                        36.000          35.000          42.500          42.250
R20  19197428.911 7  19197428.902 7  19197438.027 7  19197437.504 7                 102657460.30207 102657440.30307  79844755.72507  79844790.71807                        42.250          42.000          45.250          45.500
R21  21921039.681 8  21921039.672 8  21921050.401 7  21921050.813 7  21921037.144 7 117304009.87708 117303991.88008  91236560.75707  91236556.76407  87893040.91707        49.000          48.750          44.500          44.750          44.250
> 2024 02 29 23 11 30.0000000  0 34
C06                  40527333.491 6                  40527337.907 6  40527339.493 6                 211036464.31706                 171484451.81706 163186829.34206                        36.250                          36.000          38.000
C12                  23885823.368 7                  23885827.717 8  23885828.405 8                 124379869.76607                 101068921.00008  96178508.30508                        45.250                          48.500          49.250
C16                  40454898.833 5                  40454907.367 6  40454909.848 6                 210659309.80505                 171177987.55806 162895200.81406                        35.250                          36.250          39.000
C19  26905430.080 5  26905428.193 5  26905444.442 6  26905437.009 6                 141388995.93905 140103647.09705 105582767.45106 113845735.69606                        33.250          35.750          37.000          37.000
C20  26277067.890 5  26277067.014 6  26277079.052 6  26277072.830 6                 138086939.53005 136831613.45206 103116942.05706 111186929.08906                        35.500          38.500          39.000          39.000
C24  22045333.166 8  22045330.613 8  22045335.066 8  22045334.738 9                 115849106.05008 114795915.84708  86510751.39608  93281139.48109                        51.000          52.500          52.500          54.000
C25  25510774.069 6  25510773.058 6  25510782.582 6  25510779.719 6                 134060022.65106 132841299.74806 100109799.56106 107944463.71006                        36.000          38.750          36.000          36.500
C26  23182469.468 7  23182467.707 8  23182476.686 8  23182474.730 8                 121824727.74307 120717224.05008  90973048.02308  98092679.46708                        47.250          49.750          48.000          49.750
C29  25880894.261 6  25880891.650 6  25880903.397 6  25880900.507 6                 136005047.29806 134768635.65506 101562273.76806 109510605.43206                        37.000          38.750          37.500          39.500
C34  26392024.702 6  26392022.967 6  26392040.465 5  26392037.539 6                 138691044.61806 137430216.69606 103568072.24805 111673370.47506                        36.000          37.000          35.000          38.500
C35  21708807.356 8  21708805.652 8  21708813.013 8  21708811.079 8                 114080699.45908 113043596.11008  85190248.57908  91857271.65308                        49.750          52.250          50.500          53.000
E13  23691352.868 8  23691360.586 8  23691355.587 9  23691357.163 8  23691358.604 9 124499115.47908  92970279.22408 101054584.53509  95395559.41508  94182927.89409        49.250          52.000          54.000          53.000          55.500
E15  24541264.421 7  24541272.569 8  24541267.767 8  24541268.909 8  24541270.538 8 128965375.85807  96305446.02608 104679776.26508  98817741.39808  97561599.78708        47.500          49.750          51.250          50.500          53.000
E21  23584527.386 8  23584533.526 8  23584531.254 9  23584530.331 8  23584531.705 9 123937621.13808  92550895.50308 100598766.31109  94965251.73808  93758080.19409        49.750          52.250          55.000          53.750          56.000
E26  27046247.552 6  27046261.105 6  27046256.889 6  27046257.118 7  27046259.042 7 142129038.52806 106135408.98906 115364548.45406 108904141.09307 107519784.61607        38.500          40.500          41.750          42.250          44.500
E27  24685336.449 7  24685344.109 8  24685341.297 8  24685340.731 8  24685342.145 8 129722329.27907  96870608.21308 105294123.10208  99397658.31408  98134138.33908        47.750          49.000          50.750          50.000          52.500
E34  28739890.751 3                                                                                                                                                        20.000
G06  21513143.545 7                  21513143.438 6  21513149.465 7  21513148.740 6  21513150.689 8 113052515.53007                  88092982.98407  88092980.98206  84422467.65708        47.250                          40.250          46.250          40.250          51.000
G11  20686918.173 8  20686918.239 8  20686917.954 7  20686920.073 8  20686919.863 7  20686924.897 9 108710717.63908 108710706.63608  84709775.48008  84709773.47207  81180238.76309        49.750          49.500          45.250          50.500          45.250          55.250
G12  20168702.263 8                  20168701.919 8  20168703.036 8  20168702.468 8                 105987346.56808                  82587598.48708  82587592.49208                        52.250                          49.500          49.500          49.500
G19  23488554.839 6                  23488553.655 3                  23488558.134 3                 123433246.86906                                  96181796.55203                        37.750                          22.250                          22.250
G20  23304703.173 6                  23304702.024 3                  23304707.157 3                 122467144.17506                                  95428997.24403                        41.250                          23.500                          23.500
G24  24321568.499 6                  24321568.356 3  24321578.783 6  24321578.743 3  24321582.426 7 127810631.17606                  99592712.12506  99592702.11103  95443018.70507        38.750                          23.500          37.500          23.500          44.250
G25  20988730.651 8                  20988729.896 6  20988735.770 7  20988734.943 6  20988737.098 8 110296628.92408                  85945483.31307  85945488.29706  82364450.85408        49.000                          41.500          46.000          41.500          52.250
G28  24350139.348 4                                  24350145.523 4                  24350152.735 5                                  99709788.62304                  95555250.77305        25.500                                          26.750                          34.250
G29  24211326.301 6                  24211325.930 4  24211333.066 6  24211332.708 4                 127231425.59206                  99141422.34306  99141426.32204                        41.500                          27.250          37.500          27.250
R03  23562728.060 6  23562727.175 6  23562737.919 6  23562738.773 6                 126133178.77806 126133158.78506  98103623.84006  98103618.83406                        39.750          39.500          38.000          38.750
R04  24254679.510 5                  24254696.355 5                  24254683.964 4 129882789.77005                 101019950.24805                  97249750.03404        30.000                          30.500                          26.000
R09  21664852.573 8  21664853.606 7  21664862.620 7  21664862.213 7  21664849.742 7 115689105.17808 115689113.19007  89980437.33507  89980428.33107  86865714.47207        48.250          47.750          45.750          45.500          44.750
R10  19406117.844 8  19406117.442 8                                                 103445617.91608 103445614.91208                                                        49.000          48.750
R11  20856460.921 8  20856461.257 8  20856466.995 8  20856467.245 8  20856455.615 8 111450678.64708 111450677.65708  86683922.66008  86683907.65808  83624561.36908        52.250          52.500          48.750          49.000          48.500
R19  22366063.185 6  22366064.258 5  22366074.390 7  22366073.688 7                 119643460.34906 119643473.38605  93056156.41907  93056124.41307                        36.500          35.750          42.250          42.000
R20  19198096.570 7  19198096.207 6  19198104.966 7  19198104.371 7                 102661026.56307 102661006.57106  79847529.50107  79847564.50407                        42.500          41.750          45.250          45.500
R21  21901560.981 8  21901561.356 8  21901572.014 7  21901572.215 7  21901558.493 7 117199779.96308 117199761.96608  91155493.36607  91155489.36007  87814944.35807        48.750          48.500          44.250          44.500          43.750
> 2024 02 29 23 12 00.0000000  0 33
C06                  40522416.584 6                  40522421.035 5  40522421.974 6                 211010860.06006                 171463646.32205 163167030.61506                        36.250                          35.500          37.750
C12                  23871252.303 7                  23871256.527 8  23871257.162 8                 124303993.24407                 101007265.19908  96119835.86908                        44.750                          48.500          49.250
C16                  40450827.416 6                  40450835.244 6  40450836.857 6                 210638103.55106                 171160755.80606 162878802.86006                        36.250                          37.000          38.750
C19  26890545.251 5  26890543.945 5  26890559.251 5  26890551.894 6                 141310778.30905 140026140.54805 105524358.32705 113782755.37406                        32.250          35.250          35.500          36.000
C20  26271509.333 5  26271508.331 6  26271520.802 6  26271514.728 6                 138057730.24405 136802669.66706 103095129.96906 111163409.92906                        35.500          38.250          39.250          40.000
C24  22043220.660 8  22043218.339 8  22043222.980 8  22043222.540 9                 115838005.87608 114784916.58408  86502462.30208  93272201.67909                        50.500          52.250          52.750          54.000
C25  25494113.268 5  25494112.879 6  25494122.823 6  25494120.237 6                 133972471.95105 132754544.95406 100044421.02406 107873968.48906                        35.500          39.000          37.750          38.000
C26  23197350.567 7  23197348.658 8  23197357.888 8  23197355.847 8                 121902926.90707 120794712.30408  91031443.41008  98155644.95708                        47.250          49.750          48.000          49.750
C29  25898307.439 6  25898305.060 6  25898317.330 6  25898313.085 6                 136096553.96906 134859310.43406 101630606.59106 109584286.07506                        37.250          38.750          39.000          39.250
C34  26374375.619 6  26374374.036 6  26374392.830 5  26374388.286 6                 138598300.70406 137338315.90006 103498815.36705 111598693.47206                        36.000          37.500          35.500          38.000
C35  21715153.786 8  21715152.177 8  21715159.345 8  21715157.474 8                 114114050.03808 113076643.50108  85215153.23408  91884125.36508                        49.250          52.000          50.500          53.000
E13  23683752.710 8  23683760.245 8  23683755.179 9  23683756.795 8  23683758.258 9 124459175.72608  92940454.13408 101022165.93709  95364956.27108  94152713.77709        49.250          51.500          54.250          52.750          55.250
E15  24550563.415 7  24550571.532 8  24550566.796 8  24550567.737 8  24550569.536 8 129014242.18007  96341937.09808 104719440.48308  98855184.41608  97598566.83208        47.500          49.250          51.500          50.250          52.750
E21  23580856.618 8  23580862.699 8  23580860.490 9  23580859.535 8  23580860.865 9 123918330.82108  92536490.41608 100583108.60109  94950470.86108  93743487.21309        50.000          52.000          55.000          53.500          56.000
E26  27028561.126 6  27028575.216 6  27028570.445 7  27028570.505 7  27028572.809 7 142036098.00906 106066005.74206 115289109.99207 108832927.29407 107449476.09407        39.250          41.250          42.000          42.250          44.750
E27  24696767.204 7  24696775.123 8  24696772.043 8  24696771.682 8  24696773.079 8 129782399.05507  96915465.44708 105342880.98808  99443685.74108  98179580.66808        47.750          48.500          50.750          49.750          52.250
G06  21525740.700 7                  21525740.598 6  21525746.419 7  21525745.797 6  21525747.666 8 113118713.03807                  88144565.42907  88144563.42906  84471900.83108        47.250                          40.500          45.750          40.500          51.000
G11  20684816.153 8  20684816.147 8  20684815.934 7  20684818.048 8  20684817.941 7  20684822.908 9 108699671.68008 108699660.67908  84701168.25508  84701166.25107  81171990.18109        49.750          49.500          45.500          50.250          45.500          55.250
G12  20167814.329 8                  20167813.985 8  20167815.191 8  20167814.784 8                 105982681.48708                  82583963.38308  82583957.37708                        52.000                          49.750          49.250          49.750
G19  23506805.556 6                  23506804.380 3                  23506807.903 3                 123529149.29406                                  96256525.61003                        39.500                          23.000                          23.000
G20  23287163.515 6                  23287162.371 4                  23287168.228 4                 122374977.97206                                  95357179.60104                        40.250                          24.750                          24.750
G24  24342185.486 6                  24342185.312 3  24342197.085 6  24342196.638 3  24342200.309 7 127918976.87306                  99677137.12306  99677127.12703  95523925.96207        37.000                          22.500          37.500          22.500          44.750
G25  20976307.652 8                  20976306.897 6  20976312.704 7  20976311.649 6  20976313.763 8 110231344.96408                  85894612.74007  85894617.73006  82315699.91308        48.750                          41.500          45.750          41.500          52.250
G28  24336425.298 4                                  24336431.821 4                  24336434.781 5                                  99653617.93304                  95501420.48405        25.750                                          27.500                          32.000
G29  24193541.356 6                  24193540.990 4  24193549.119 6  24193548.922 4                 127137973.45906                  99068602.74706  99068606.73904                        39.250                          25.500          36.750          25.500
R03  23558831.886 7  23558832.687 6  23558845.264 6  23558844.334 6                 126112328.07607 126112308.08206  98087406.73006  98087401.72506                        42.000          41.250          39.500          38.750
R04  24237029.058 5                  24237043.140 5                  24237030.400 4 129788244.23005                 100946414.87405                  97178959.14004        32.250                          30.500                          29.000
R09  21687197.016 8  21687197.543 7  21687206.128 7  21687206.383 7  21687193.774 7 115808419.23908 115808427.24507  90073237.00107  90073228.00107  86955301.84907        48.500          47.750          45.750          45.750          44.500
R10  19413112.311 8  19413111.949 8                                                 103482900.37908 103482897.38308                                                        49.250          49.000
R11  20839306.284 8  20839306.351 8  20839313.015 8  20839312.863 8  20839301.210 8 111359012.72608 111359011.73708  86612627.01908  86612612.02508  83555781.98208        51.750          52.250          48.500          48.750          48.000
R19  22387430.256 6  22387430.458 6  22387439.324 6  22387438.658 6                 119757750.71806 119757763.70806  93145048.80206  93145016.80306                        37.000          36.000          41.250          41.500
R20  19198880.856 7  19198881.178 6  19198890.138 7  19198889.463 7                 102665224.19107 102665204.19506  79850794.34107  79850829.34407                        42.250          41.750          45.250          45.500
R21  21882146.488 8  21882146.206 8  21882156.461 7  21882156.899 7  21882142.855 7 117095885.29208 117095867.30108  91074686.69507  91074682.69807  87737099.00907        49.500          49.000          44.500          44.500          43.750
> 2024 02 29 23 12 30.0000000  0 33
C06                  40517524.678 6                  40517529.761 5  40517530.212 6                 210985389.98406                 171442949.89805 163147335.63506                        36.000                          35.000          37.250
C12                  23856723.846 7                  23856727.842 8  23856728.566 8                 124228340.05507                 100945790.85208  96061336.10108                        45.000                          48.500          49.250
C16                  40446783.156 6                  40446790.027 6  40446791.024 6                 210617038.28406                 171143638.63606 162862513.95706                        38.000                          37.750          38.750
C19  26875691.098 5  26875689.498 5  26875704.871 5  26875698.913 6                 141232720.83405 139948792.67105 105466068.70805 113719903.93606                        32.250          35.000          35.000          37.750
C20  26266037.753 6  26266035.630 6  26266048.584 6  26266042.684 6                 138028974.98506 136774175.83006 103073656.95706 111140256.39606                        36.750          38.750          39.000          39.500
C24  22041202.957 8  22041200.882 8  22041205.470 8  22041204.722 9                 115827402.82808 114774409.93308  86494544.44308  93263664.16109                        50.500          52.500          52.750          54.000
C25  25477493.974 5  25477493.227 6  25477504.790 6  25477501.855 6                 133885140.68305 132668007.61506  99979206.37006 107803649.96206                        35.500          38.250          38.750          40.000
C26  23212293.796 7  23212291.856 8  23212300.911 8  23212298.915 8                 121981453.06307 120872524.58508  91090082.98308  98218873.74308                        47.250          49.750          48.000          49.750
C29  25915723.770 6  25915720.327 6  25915734.024 6  25915730.606 6                 136188078.25106 134950002.69706 101698952.52606 109657980.85306                        36.250          37.500          38.500          39.500
C34  26356741.307 6  26356739.268 6  26356758.974 6  26356752.806 6                 138505630.60206 137246488.28706 103429613.66606 111524075.97506                        36.000          38.250          36.500          37.750
C35  21721559.722 8  21721558.090 8  21721565.406 8  21721563.454 8                 114147713.88108 113110001.30608  85240291.82108  91911231.31708                        49.250          52.000          50.500          53.000
E13  23676223.858 8  23676231.294 8  23676226.188 9  23676227.777 8  23676229.223 9 124419610.63108  92910908.82208 100990051.44509  95334640.20608  94122783.08809        49.250          52.000          54.000          53.250          55.750
E15  24559921.552 7  24559929.722 8  24559924.969 8  24559926.138 8  24559927.731 8 129063419.66107  96378660.52508 104759357.25908  98892865.85308  97635769.26408        46.750          49.750          51.000          50.500          53.000
E21  23577243.078 8  23577249.352 8  23577247.201 9  23577246.157 8  23577247.490 9 123899342.49708  92522310.83908 100567696.01109  94935921.38308  93729122.68509        49.250          52.500          55.000          53.750          56.250
E26  27010895.602 6  27010909.669 7  27010904.885 7  27010905.522 7  27010907.177 7 141943265.95006 105996683.48207 115213759.53307 108761796.58707 107379249.60907        38.250          42.500          42.750          43.000          45.750
E27  24708244.948 7  24708252.890 8  24708250.006 8  24708249.520 8  24708250.907 8 129842715.22507  96960506.67608 105391838.87508  99489901.97108  98225209.39808        47.000          48.750          50.250          50.000          52.500
G06  21538420.041 8                  21538419.939 6  21538425.460 7  21538424.709 6  21538426.532 8 113185341.69808                  88196483.83907  88196481.83706  84521655.97308        48.000                          40.250          45.750          40.250          51.000
G11  20682823.992 8  20682824.112 8  20682823.773 7  20682825.722 8  20682825.615 7  20682830.600 9 108689202.15208 108689191.15208  84693010.19608  84693008.19607  81164172.04709        50.000          49.500          45.250          50.250          45.250          55.250
G12  20167026.179 8                  20167025.831 8  20167027.131 8  20167026.563 8                 105978539.97608                  82580736.24508  82580730.24408                        52.250                          49.250          49.250          49.250
G19  23525073.181 6                  23525071.983 3                  23525076.378 3                 123625149.57706                                  96331330.90103                        39.000                          22.750                          22.750
G20  23269667.018 6                  23269665.910 3                  23269672.071 3                 122283035.47706                                  95285536.31003                        40.500                          23.750                          23.750
G24  24362815.537 6                  24362815.350 3  24362826.125 6  24362825.799 3  24362829.152 7 128027382.26606                  99761608.68506  99761598.68303  95604877.78607        38.000                          22.000          38.000          22.000          44.250
G25  20963961.592 8                  20963960.841 6  20963967.011 7  20963966.224 6  20963967.797 8 110166468.23908                  85844059.48907  85844064.48406  82267253.05908        48.500                          41.500          46.250          41.500          52.000
G28  24322790.731 4                                                                  24322802.428 5                                                                  95447915.83005        25.250                                                                          30.000
G29  24175778.771 6                  24175778.391 4  24175785.035 5  24175785.742 4                 127044628.09606                  98995866.35905  98995870.35404                        40.250                          24.750          35.500          24.750
R03  23555074.253 6  23555074.785 6  23555086.353 6  23555086.160 6                 126092210.34206 126092190.36706  98071759.71006  98071754.72506                        40.500          39.750          38.250          38.250
R04  24219438.895 5  24219438.483 5  24219449.555 5                  24219442.405 5 129694055.67605 129694002.66515 100873157.23805                  97108435.47205        32.500          31.250          30.000                          30.500
R09  21709605.516 8  21709606.101 7  21709614.628 7  21709614.557 7  21709602.109 7 115928079.17408 115928087.18207  90166305.68507  90166296.68807  87045148.93707        48.500          47.750          45.750          45.250          44.000
R10  19420243.996 8  19420243.562 8                                                 103520917.16308 103520914.16608                                                        49.000          48.750
R11  20822242.273 8  20822242.528 8  20822249.134 8  20822249.246 8  20822237.544 8 111267828.79808 111267827.80408  86541706.26808  86541691.26708  83487364.23608        52.000          52.000          48.750          49.250          48.250
R19  22408821.641 6  22408821.520 5  22408830.132 6  22408829.698 6                 119872176.54906 119872189.56805  93234046.53906  93234014.52906                        37.000          35.500          41.000          41.000
R20  19199783.799 7  19199783.638 6  19199792.575 7  19199792.338 7                 102670052.70707 102670032.72206  79854549.89007  79854584.88907                        42.000          41.750          45.000          45.500
R21  21862793.217 8  21862793.315 8  21862804.420 7  21862804.129 7  21862791.047 7 116992328.43008 116992310.44308  90994142.81607  90994138.82307  87659506.79007        48.250          48.000          44.250          44.250          44.000
> 2024 02 29 23 13 00.0000000  0 33
C06                  40512658.528 5                  40512664.756 5  40512665.144 6                 210960056.54305                 171422364.45405 163127746.29106                        35.250                          34.750          37.250
C12                  23842238.999 7                  23842242.704 8  23842242.914 8                 124152912.85107                 100884500.15008  96003011.09908                        45.000                          48.500          49.000
C16                  40442765.233 6                  40442772.443 6  40442773.833 6                 210596116.54706                 171126638.08906 162846335.99706                        38.750                          38.000          39.750
C19  26860868.054 5  26860868.599 6  26860882.747 6  26860875.908 6                 141154828.24305 139871608.16106 105407902.19406 113657185.23906                        33.250          36.000          36.000          37.500
C20  26260652.757 5  26260651.380 6  26260662.858 6  26260657.204 6                 138000677.23305 136746135.35106 103052525.62206 111117471.28806                        35.500          38.500          38.250          38.750
C24  22039280.588 8  22039278.415 8  22039282.927 8  22039282.085 9                 115817299.64308 114764398.59708  86486999.85608  93255529.12709                        50.500          52.750          52.500          54.000
C25  25460919.573 6  25460916.268 6  25460928.874 6  25460925.769 6                 133798033.02706 132581691.90006  99914158.70306 107733511.55006                        37.250          38.250          38.500          41.000
C26  23227299.644 7  23227297.020 8  23227306.115 7  23227304.141 8                 122060306.60607 120950661.26508  91148967.02507  98282366.13408                        47.500          49.500          47.500          49.500
C29  25933143.874 5  25933142.179 6  25933153.036 6  25933150.021 6                 136279621.21605 135040713.42306 101767312.43906 109731690.71906                        35.250          38.250          37.250          38.750
C34  26339121.942 6  26339119.853 6  26339138.589 6  26339133.924 6                 138413037.29406 137154736.71806 103360469.33606 111449520.33006                        37.000          39.000          36.500          38.250
C35  21728025.746 8  21728023.922 8  21728031.183 8  21728029.255 8                 114181691.90408 113143670.43908  85265665.02008  91938590.24708                        49.000          52.000          50.250          53.000
E13  23668766.510 8  23668773.933 8  23668768.836 9  23668770.456 8  23668771.951 9 124380422.63808  92881645.11708 100958243.05209  95304613.09308  94093137.68109        49.000          51.500          54.000          53.000          55.500
E15  24569339.195 7  24569347.012 8  24569342.272 8  24569343.812 8  24569345.231 8 129112908.93007  96415616.78508 104799527.11108  98930786.18608  97673207.56008        46.500          49.250          51.250          50.500          52.750
E21  23573687.914 8  23573694.013 8  23573691.872 9  23573690.867 9  23573692.161 9 123880659.16008  92508359.02008 100552530.98409  94921605.60209  93714988.88509        49.250          52.000          55.250          54.000          56.000
E26  26993251.544 6  26993265.603 7  26993260.774 7  26993260.981 7  26993262.713 7 141850545.61206 105927444.67507 115138499.81307 108690751.50007 107309107.66307        38.250          42.000          44.250          42.000          45.000
E27  24719770.214 7  24719777.772 8  24719774.781 8  24719774.702 8  24719775.942 8 129903279.45107  97005733.14808 105440998.10108  99536308.26208  98271025.77908        46.750          48.250          50.250          50.000          52.250
G06  21551181.259 8                  21551181.157 6  21551186.437 7  21551185.610 6  21551187.621 8 113252401.21808                  88248737.97407  88248735.97606  84571732.84608        48.000                          40.000          45.500          40.000          50.750
G11  20680941.792 8  20680941.858 8  20680941.578 7  20680943.473 8  20680943.263 7  20680948.288 9 108679310.95008 108679299.95008  84685302.79508  84685300.79107  81156785.79109        50.000          49.500          45.000          50.000          45.000          55.250
G12  20166337.925 8                  20166337.581 8  20166338.774 8  20166338.304 8                 105974923.56208                  82577918.26908  82577912.26908                        52.000                          49.250          49.000          49.250
G19  23543360.024 6                  23543358.848 3                  23543363.811 3                 123721248.78106                                  96406213.31103                        38.500                          23.500                          23.500
G20  23252214.588 6                  23252213.506 4                  23252219.662 4                 122191322.04506                                  95214071.52804                        40.750                          24.000                          24.000
G24  24383456.152 6                  24383455.938 3  24383466.808 6  24383466.652 3  24383469.065 7 128135846.60206                  99846126.12306  99846116.12803  95685873.64907        38.500                          22.750          38.750          22.750          43.000
G25  20951694.563 8                  20951693.817 7  20951699.642 7  20951698.877 7  20951700.558 8 110102002.93508                  85793826.83807  85793831.83407  82219113.44808        49.250                          42.000          46.250          42.000          52.000
G28  24309242.644 4                                                                  24309252.977 4                                                                  95394740.05604        28.250                                                                          28.000
G29  24158035.757 6                  24158035.386 4  24158042.835 5  24158043.094 4                 126951392.49106                  98923215.46805  98923219.45404                        39.750                          24.000          35.500          24.000
R03  23551453.531 6  23551453.947 6  23551465.760 6  23551464.888 6                 126072829.51806 126072809.53106  98056685.80806  98056680.78306                        39.750          38.500          38.000          37.000
R04  24201916.456 4  24201915.938 4  24201929.407 5  24201930.610 5  24201918.527 5 129600230.65904 129600177.65404 100800182.27005 100800183.27915  97038184.09805        28.250          29.250          33.250          33.000          30.750
R09  21732079.501 8  21732079.479 7  21732087.541 7  21732087.469 7  21732075.289 7 116048083.79908 116048091.80407  90259642.45107  90259633.44607  87135254.83207        48.500          47.750          44.750          45.000          44.000
R10  19427513.642 8  19427513.472 8                                                 103559669.46208 103559666.46708                                                        48.750          48.750
R11  20805270.431 8  20805270.377 8  20805277.081 8  20805276.768 8  20805265.156 8 111177133.08408 111177132.09608  86471165.23708  86471150.23408  83419312.81608        52.500          52.500          48.750          49.250          48.500
R19  22430236.491 6  22430236.777 5  22430246.614 6  22430246.131 6                 119986737.20306 119986750.20605  93323149.18706  93323117.18106                        36.250          35.000          41.250          41.750
R20  19200804.308 7  19200805.148 6  19200814.045 7  19200813.281 7                 102675513.17107 102675493.19006  79858796.93907  79858831.93707                        42.000          41.750          45.000          45.250
R21  21843505.168 8  21843505.163 8  21843514.931 7  21843515.302 7  21843502.005 7 116889113.28108 116889095.28008  90913864.72007  90913860.70707  87582170.61207        48.500          48.500          43.750          44.000          43.500
> 2024 02 29 23 13 30.0000000  0 33
C06                  40507819.547 5                  40507825.077 5  40507825.836 6                 210934857.29405                 171401888.05005 163108260.73106                        35.250                          34.500          37.750
C12                  23827797.195 7                  23827800.444 7  23827800.967 8                 124077709.36107                 100823391.22607  95944859.08608                        45.250                          47.750          49.250
C16                  40438773.566 6                  40438781.278 6  40438783.557 6                 210575335.86406                 171109752.12906 162830267.11106                        38.500                          37.250          40.500
C19  26846077.816 5  26846075.880 5  26846091.875 6  26846084.817 6                 141077100.20905 139794586.74405 105349858.62006 113594599.10206                        34.250          34.750          37.500          38.000
C20  26255354.254 6  26255353.186 6  26255365.509 6  26255359.945 6                 137972835.38906 136718546.60106 103031734.70306 111095053.24506                        36.000          38.000          38.750          39.750
C24  22037452.566 8  22037450.106 8  22037455.079 8  22037454.330 8                 115807694.01208 114754880.28908  86479826.81808  93247794.71908                        50.500          52.250          52.750          53.500
C25  25444384.938 6  25444383.825 6  25444393.908 6  25444391.389 6                 133711148.21506 132495596.95106  99849277.41206 107663552.52006                        36.750          39.500          38.000          40.500
C26  23242366.207 7  23242363.918 8  23242372.781 7  23242370.602 8                 122139482.85107 121029117.73608  91208092.06207  98346118.37808                        47.500          49.500          47.500          48.750
C29  25950566.915 6  25950565.319 6  25950577.450 6  25950573.151 6                 136371178.91006 135131438.81806 101835683.35606 109805412.44406                        36.250          38.500          38.000          38.500
C34  26321515.463 6  26321513.827 6  26321533.144 6  26321527.709 6                 138320518.58706 137063059.09106 103291380.74606 111375024.80606                        36.750          39.000          37.750          37.500
C35  21734550.334 8  21734548.742 8  21734556.044 8  21734554.120 8                 114215980.11308 113177646.94108  85291269.86108  91966198.94108                        49.250          52.000          50.500          52.500
E13  23661380.699 8  23661387.835 8  23661383.033 8  23661384.520 8  23661385.961 9 124341609.20608  92852661.10808 100926738.67908  95274872.97808  94063775.61809        49.000          51.500          53.750          53.000          55.500
E15  24578814.853 7  24578822.898 8  24578818.243 8  24578819.873 8  24578821.224 8 129162705.59607  96452802.58408 104839946.46808  98968942.05208  97710878.39208        46.500          49.000          50.750          50.500          52.750
E21  23570190.250 8  23570196.211 8  23570193.971 9  23570193.015 8  23570194.483 9 123862278.78308  92494633.43008 100537611.86309  94907521.95008  93701084.26509        49.250          52.000          54.500          53.750          56.000
E26  26975627.904 6  26975641.354 6  26975637.267 7  26975636.943 6  26975638.925 7 141757935.39206 105858288.03906 115063329.44307 108619790.70606 107239048.94607        38.250          41.250          43.750          40.750          44.000
E27  24731341.663 7  24731349.377 8  24731346.534 8  24731346.276 8  24731347.534 8 129964088.39807  97051142.35608 105490355.96908  99582902.06708  98317027.28608        46.750          48.500          50.000          50.000          52.250
G06  21564023.025 7                  21564022.927 6  21564028.408 7  21564027.733 6  21564029.409 8 113319886.26807                  88301323.69607  88301321.70106  84622127.49108        47.750                          40.000          45.750          40.000          50.750
G11  20679169.074 8  20679169.167 8  20679168.846 7  20679170.536 8  20679170.420 7  20679175.468 9 108669995.00308 108669984.00408  84678043.63208  84678041.63207  81149829.09709        50.250          49.500          45.250          50.250          45.250          55.250
G12  20165749.480 8                  20165749.132 8  20165750.500 8  20165749.847 8                 105971830.86108                  82575508.39008  82575502.38908                        52.250                          49.750          49.500          49.750
G19  23561666.551 6                  23561665.371 3                  23561669.810 3                 123817442.94206                                  96481169.67503                        39.750                          23.500                          23.500
G20  23234805.938 6                  23234804.892 4                  23234810.588 4                 122099837.63706                                  95142785.18704                        41.000                          24.500                          24.500
G24  24404106.024 6                  24404105.770 4  24404117.395 6  24404116.880 4  24404119.080 6 128244364.20206                  99930685.10006  99930675.09004  95766909.30506        38.500                          24.250          39.250          24.250          41.250
G25  20939505.352 8                  20939504.610 7  20939510.597 7  20939509.828 7  20939511.397 8 110037948.32808                  85743914.22107  85743919.21307  82171280.52008        49.250                          42.250          46.750          42.250          52.000
G28  24295764.507 3                                  24295778.525 4                                                                                                                        20.000                                          27.500
G29  24140313.901 6                  24140313.512 4  24140320.582 6  24140321.534 4                 126858264.45106                  98850648.44006  98850652.42104                        39.500                          24.250          36.000          24.250
R03  23547971.164 6  23547971.057 6  23547982.638 6  23547982.191 6                 126054183.41706 126054163.43806  98042183.30106  98042178.31106                        40.750          39.750          38.000          37.000
R04  24184472.459 5  24184469.195 5  24184476.135 5  24184476.600 5  24184467.053 5 129506770.52405 129506717.52405 100727491.23305 100727492.24905  96968206.02605        34.250          33.500          32.750          32.500          32.500
R09  21754615.154 8  21754615.552 7  21754625.157 7  21754625.335 7  21754612.212 7 116168426.92708 116168434.92807  90353242.49107  90353233.50507  87225614.88607        48.250          47.250          46.250          45.750          44.000
R10  19434920.737 8  19434920.522 8                                                 103599153.95408 103599150.95708                                                        49.000          48.750
R11  20788388.758 8  20788388.869 8  20788395.864 8  20788395.846 8  20788383.711 8 111086926.28008 111086925.28608  86401004.45608  86400989.45508  83351628.22908        51.750          52.000          48.750          48.750          48.000
R19  22451678.001 6  22451677.048 5  22451687.310 7  22451686.903 6                 120101427.38706 120101440.38905  93412352.53307  93412320.53806                        36.750          35.000          42.000          41.750
R20  19201943.538 6  19201943.327 6  19201952.296 7  19201951.759 7                 102681601.29306 102681581.30706  79863532.16707  79863567.16307                        41.750          41.750          44.750          44.750
R21  21824280.382 8  21824280.574 8  21824290.932 7  21824290.713 7  21824277.242 7 116786238.73408 116786220.73508  90833851.50907  90833847.51007  87505089.62107        49.000          49.000          44.250          44.000          44.000
> 2024 02 29 23 14 00.0000000  0 33
C06                  40503007.542 6                  40503011.819 5  40503013.290 6                 210909793.78306                 171381521.93905 163088880.09506                        36.000                          35.250          38.750
C12                  23813397.696 7                  23813401.906 8  23813402.621 8                 124002731.31207                 100762465.49808  95886881.39308                        45.250                          48.500          50.000
C16                  40434809.702 6                  40434817.633 6  40434820.257 6                 210554697.63506                 171092981.91906 162814308.37006                        38.250                          37.000          41.250
C19  26831317.756 5  26831315.337 5  26831332.597 6  26831325.589 6                 140999540.36805 139717732.04205 105291940.69606 113532148.42206                        32.500          33.250          38.250          38.000
C20  26250143.250 5  26250143.344 6  26250155.015 6  26250148.543 6                 137945451.74805 136691411.91306 103011285.99706 111073004.15806                        35.500          39.250          39.500          40.500
C24  22035719.760 8  22035717.229 8  22035722.085 8  22035721.310 9                 115798587.62708 114745856.68808  86473026.59508  93240462.30609                        50.250          52.250          52.500          54.000
C25  25427893.935 6  25427893.211 6  25427903.030 6  25427900.668 6                 133624489.38406 132409725.90606  99784564.84806 107593775.44206                        36.250          39.750          38.500          41.750
C26  23257494.169 7  23257491.803 8  23257500.903 7  23257498.737 8                 122218981.12507 121107893.29208  91267457.57207  98410129.91608                        47.000          49.500          47.250          49.250
C29  25967990.933 5  25967991.537 6  25968002.542 6  25967999.115 6                 136462751.57405 135222178.95606 101904065.42906 109879146.18106                        34.250          38.750          38.250          38.750
C34  26303924.723 6  26303922.317 6  26303942.314 6  26303936.343 6                 138228076.26706 136971457.15306 103222349.24406 111300590.83506                        37.000          38.500          39.000          38.500
C35  21741134.245 8  21741132.497 8  21741139.888 8  21741137.942 8                 114250578.36908 113211930.66708  85317106.22208  91994057.27808                        49.250          52.000          50.500          53.000
E13  23654065.993 8  23654073.367 8  23654068.578 9  23654070.127 8  23654071.519 9 124303171.71308  92823957.84508 100895539.45609  95245420.92608  94034697.95909        49.500          51.500          54.250          53.000          55.500
E15  24588349.405 7  24588357.382 8  24588352.938 8  24588354.348 8  24588355.619 8 129212809.23607  96490217.62908 104880615.00008  99007333.13808  97748781.45708        47.250          49.000          51.500          50.500          53.000
E21  23566750.585 8  23566756.541 8  23566754.328 9  23566753.427 8  23566754.819 9 123844203.38608  92481135.59008 100522940.29009  94893671.99108  93687410.36509        50.000          52.250          55.000          53.750          56.000
E26  26958026.593 6  26958039.314 6  26958035.303 7  26958035.086 6  26958036.746 7 141665437.51706 105789215.30506 114988250.24107 108548916.00106 107169075.22807        39.000          41.000          44.000          41.000          44.000
E27  24742960.098 7  24742967.669 8  24742964.848 8  24742964.465 8  24742965.839 8 130025142.70407  97096734.79408 105539912.98408  99629683.88208  98363214.41308        47.500          48.500          50.500          49.750          52.250
G06  21576945.466 7                  21576945.373 6  21576951.242 7  21576950.344 6  21576952.167 8 113387795.50407                  88354239.96307  88354237.96406  84672838.90808        47.750                          39.750          45.500          39.750          50.500
G11  20677505.860 8  20677505.899 8  20677505.632 7  20677507.524 8  20677507.304 7  20677512.303 9 108661255.19408 108661244.19208  84671233.41608  84671231.41207  81143302.64109        50.250          49.500          45.250          50.000          45.250          55.000
G12  20165261.011 8                  20165260.663 8  20165262.034 8  20165261.462 8                 105969263.58008                  82573507.92608  82573501.92508                        52.500                          49.500          49.250          49.500
G19  23579988.578 6                  23579987.371 3                  23579993.063 3                 123913732.09306                                  96556200.07903                        38.750                          23.750                          23.750
G20  23217440.630 6                  23217439.598 4                  23217445.857 4                 122008586.41006                                  95071680.56904                        40.750                          24.500                          24.500
G24  24424766.303 6                  24424766.017 3  24424777.558 6  24424777.146 3  24424780.007 7 128352933.34306                 100015284.21006 100015274.22503  95847983.47407        38.250                          23.750          38.750          23.750          42.000
G25  20927394.724 8                  20927393.982 7  20927400.005 7  20927399.285 7  20927400.728 8 109974307.58108                  85694324.08507  85694329.07507  82123756.65108        49.250                          42.000          46.250          42.000          51.750
G28  24282394.714 4                                  24282394.839 4                                                                                                                        28.000                                          28.250
G29  24122613.597 7                  24122613.195 4  24122620.197 6  24122619.772 4                 126765245.76007                  98778166.58306  98778170.58904                        42.000                          26.500          36.250          26.500
R03  23544625.650 6  23544625.395 6  23544635.599 5  23544636.891 6                 126036274.48806 126036254.50106  98028254.13805  98028249.13506                        38.000          36.750          35.500          36.500
R04  24167084.561 5  24167081.435 5  24167093.334 5  24167092.981 5  24167081.989 5 129413680.72405 129413627.70205 100655088.25105 100655089.28705  96898505.23105        35.500          33.250          35.250          34.000          32.500
R09  21777214.195 7  21777214.490 7  21777223.826 7  21777224.103 7  21777211.825 7 116289106.42207 116289114.42307  90447104.17707  90447095.18307  87316227.53107        47.250          47.000          45.250          45.250          44.000
R10  19442465.313 8  19442465.175 8                                                 103639370.39208 103639367.40008                                                        49.000          48.750
R11  20771600.008 8  20771600.227 8  20771606.573 8  20771606.412 8  20771594.925 8 110997213.28508 110997212.29408  86331227.75408  86331212.75508  83284314.17108        52.250          52.250          48.500          48.750          48.250
R19  22473141.473 5  22473140.493 5  22473151.055 7  22473150.371 6                 120216244.95605 120216257.98005  93501654.93707  93501622.94306                        35.750          35.000          42.000          41.750
R20  19203199.086 6  19203199.215 6  19203208.497 7  19203207.630 7                 102688316.35606 102688296.36806  79868755.01507  79868790.01507                        41.500          41.750          45.250          45.750
R21  21805120.093 8  21805120.080 8  21805129.468 7  21805129.660 7  21805116.497 7 116683707.20208 116683689.21108  90754105.09307  90754101.09007  87428265.67607        49.500          49.000          44.500          44.500          44.000
> 2024 02 29 23 14 30.0000000  0 33
C06                  40498220.865 5                  40498225.487 5  40498227.243 6                 210884869.41405                 171361268.92905 163069607.09606                        35.750                          35.250          38.750
C12                  23799041.545 7                  23799047.146 8  23799048.174 8                 123927982.46707                 100701726.00008  95829080.93708                        44.750                          48.750          50.250
C16                  40430874.158 6                  40430881.646 6  40430884.892 6                 210534205.40006                 171076330.35006 162798462.53506                        38.000                          36.500          41.750
C19  26816592.268 5  26816590.238 5  26816606.420 6  26816599.340 6                 140922154.44705 139641049.65705 105234152.66106 113469837.81306                        31.750          34.250          38.250          37.750
C20  26245021.475 6  26245019.190 6  26245031.343 6  26245025.216 6                 137918530.62306 136664735.53706 102991182.67306 111051327.49406                        36.750          38.500          38.500          39.750
C24  22034082.496 8  22034080.126 8  22034084.700 8  22034084.140 9                 115789984.14808 114737331.41808  86466601.92708  93233534.83209                        50.750          52.750          52.750          54.000
C25  25411446.644 5  25411445.758 6  25411456.481 6  25411453.658 6                 133538061.66805 132324083.89906  99720024.89306 107524184.43806                        35.250          38.750          40.000          41.250
C26  23272683.526 7  23272681.385 8  23272690.775 7  23272688.372 8                 122298802.79607 121186989.30808  91327064.57807  98474401.84408                        47.000          49.250          47.750          49.250
C29  25985421.499 5  25985420.355 6  25985431.735 6  25985427.468 6                 136554341.22205 135312935.96406 101972460.21006 109952893.61406                        34.500          39.000          38.250          38.500
C34  26286348.383 6  26286345.914 6  26286365.782 6  26286360.691 6                 138135714.12306 136879934.69706 103153377.72606 111226221.49106                        36.000          38.000          39.000          39.500
C35  21747777.500 8  21747775.788 8  21747783.068 8  21747781.067 8                 114285488.68008 113246523.61508  85343175.61708  92022166.88608                        49.250          52.250          50.500          52.750
E13  23646823.819 8  23646831.081 8  23646826.211 9  23646827.908 8  23646829.242 9 124265113.60908  92795537.88708 100864648.17709  95216259.57008  94005907.30309        49.000          51.750          54.250          53.250          55.500
E15  24597942.500 7  24597950.437 8  24597945.877 8  24597947.528 8  24597948.728 8 129263221.49007  96527863.12608 104921534.02508  99045960.69408  97786917.98408        46.500          49.000          51.250          50.750          53.000
E21  23563369.970 8  23563375.841 8  23563373.422 9  23563372.539 8  23563373.957 9 123826436.95508  92467868.46908 100508519.49509  94880058.76908  93673970.19309        49.500          52.250          55.000          53.750          56.250
E26  26940446.635 6  26940459.021 6  26940455.417 7  26940455.464 6  26940456.735 7 141573056.33806 105720229.66306 114913265.75207 108478130.69906 107099189.75607        39.000          40.250          43.000          41.500          44.000
E27  24754625.818 7  24754633.250 8  24754630.451 8  24754629.818 8  24754631.335 8 130086445.04907  97142512.44908 105589671.32608  99676655.74708  98409589.17208        47.000          48.750          50.250          49.750          52.250
G06  21589949.676 7                  21589949.587 6  21589954.518 7  21589953.941 6  21589955.716 8 113456129.61607                  88407487.30107  88407485.29806  84723867.59808        47.750                          40.000          45.000          40.000          50.500
G11  20675952.739 8  20675952.832 8  20675952.520 7  20675954.662 8  20675954.402 7  20675959.271 9 108653094.39608 108653083.39408  84664874.37708  84664872.37307  81137208.56909        49.750          49.000          45.750          50.250          45.750          55.000
G12  20164873.315 8                  20164872.967 8  20164873.959 8  20164873.592 8                 105967225.61408                  82571919.91308  82571913.91108                        52.250                          50.000          49.000          50.000
G19  23598330.948 6                  23598329.804 4                  23598334.812 4                 124010118.37506                                  96631306.17504                        38.750                          24.000                          24.000
G20  23200121.762 6                  23200120.747 4                  23200125.741 4                 121917574.21906                                  95000762.18904                        40.500                          24.750                          24.750
G24  24445436.479 6                  24445436.225 3  24445447.931 6  24445446.925 3  24445449.844 7 128461554.33006                 100099923.73606 100099913.76003  95929096.29507        38.000                          22.750          38.000          22.750          42.250
G25  20915364.014 8                  20915363.272 7  20915368.879 7  20915368.333 7  20915370.099 8 109911085.90608                  85645060.49707  85645065.48607  82076545.72408        48.750                          42.000          45.750          42.000          52.000
G28  24269093.214 4                                  24269095.731 4                  24269102.635 5                                                                  95237174.79315        28.250                                          26.500                          30.500
G29  24104933.144 6                  24104932.742 4  24104940.155 6  24104940.594 4                 126672339.96506                  98705772.78806  98705776.76404                        40.750                          27.000          36.250          27.000
R03  23541420.926 5  23541421.722 5  23541429.864 6  23541430.924 5                 126019107.17305 126019087.17905  98014901.81506  98014896.80005                        35.750          34.750          36.000          35.750
R04  24149764.771 5  24149765.553 5  24149779.179 6  24149779.769 5  24149768.420 5 129320968.36805 129320915.35005 100582978.86906 100582979.88205  96829087.09305        33.000          32.000          36.000          34.750          33.750
R09  21799876.475 7  21799877.065 7  21799886.522 7  21799886.960 7  21799874.100 7 116410122.65707 116410130.66607  90541227.74607  90541218.76007  87407092.98607        47.250          46.750          45.250          45.000          44.000
R10  19450147.890 8  19450147.537 8                                                 103680320.99708 103680318.00308                                                        49.000          48.750
R11  20754905.995 8  20754906.156 8  20754912.006 8  20754911.961 8  20754900.281 8 110908001.14108 110908000.15008  86261840.59708  86261825.59708  83217375.90008        52.250          52.750          48.750          49.000          48.500
R19  22494628.740 5  22494628.579 5  22494638.554 6  22494637.830 6                 120331190.47105 120331203.49805  93591056.87906  93591024.89406                        35.250          33.750          40.750          40.750
R20  19204573.326 7  19204572.758 7  19204581.704 7  19204581.212 7                 102695660.29107 102695640.30807  79874466.98507  79874501.98907                        42.000          42.000          45.500          45.750
R21  21786023.737 8  21786024.555 8  21786034.305 7  21786034.435 7  21786020.959 7 116581523.84608 116581505.85108  90674629.49207  90674625.47507  87351702.56607        49.500          49.500          45.000          45.000          44.250
> 2024 02 29 23 15 00.0000000  0 33
C06                  40493458.751 5                  40493465.180 5  40493466.136 6                 210860079.88205                 171341125.47505 163050438.32806                        34.500                          35.500          38.250
C12                  23784730.716 7                  23784735.409 8  23784735.873 8                 123853458.39607                 100641169.18808  95771454.30808                        45.250                          48.500          49.500
C16                  40426966.384 6                  40426973.036 6  40426977.314 7                 210513854.57406                 171059793.68206 162782726.07207                        38.000                          36.000          42.250
C19  26801899.262 5  26801898.354 6  26801912.806 6  26801905.847 6                 140844940.07605 139564537.20806 105176492.76206 113407665.29806                        32.500          36.250          38.000          38.250
C20  26239985.394 5  26239983.547 6  26239994.977 6  26239989.783 6                 137892068.29805 136638513.80806 102971421.92606 111030020.23506                        35.500          38.500          38.000          40.000
C24  22032540.081 8  22032537.885 8  22032542.312 8  22032541.845 8                 115781879.14208 114729300.09708  86460549.49208  93227008.73208                        50.750          52.750          52.500          53.750
C25  25395043.484 5  25395042.362 6  25395053.930 6  25395049.604 6                 133451862.11305 132238668.08106  99655655.38406 107454777.24606                        35.500          38.250          41.000          40.250
C26  23287933.136 7  23287931.066 8  23287940.550 7  23287938.577 8                 122378941.04107 121266399.02708  91386907.99007  98538928.68808                        46.750          49.250          47.500          49.250
C29  26002852.786 5  26002849.827 6  26002863.045 6  26002859.613 6                 136645941.85605 135403703.90506 102040863.23006 110026649.91106                        35.500          38.000          39.000          39.500
C34  26268786.746 6  26268784.358 6  26268803.506 6  26268799.260 6                 138043427.95306 136788487.52906 103084462.94006 111151913.32006                        36.000          37.750          39.250          40.000
C35  21754478.906 8  21754476.965 8  21754484.460 8  21754482.477 8                 114320704.85908 113281419.64208  85369473.41608  92050522.77108                        49.250          52.250          50.250          52.750
E13  23639652.811 8  23639660.167 8  23639655.293 9  23639656.941 8  23639658.270 9 124227430.20708  92767397.73408 100834061.03509  95187385.32008  93977400.10109        49.250          51.750          54.000          53.000          55.500
E15  24607593.262 7  24607601.182 8  24607596.661 8  24607598.197 8  24607599.334 8 129313935.89707  96565734.26008 104962698.30708  99084819.76708  97825283.08808        46.750          49.000          51.250          50.500          52.750
E21  23560046.856 8  23560053.076 8  23560050.648 9  23560049.711 8  23560051.112 9 123808975.38808  92454829.01408 100494346.16309  94866679.15108  93660760.65709        49.500          52.250          55.000          53.500          56.000
E26  26922888.629 6  26922900.599 6  26922897.335 7  26922897.820 7  26922898.564 7 141480788.11206 105651328.30306 114838372.87207 108407431.90007 107029389.67507        39.500          39.500          43.000          43.000          44.500
E27  24766337.108 7  24766345.180 8  24766342.135 8  24766341.448 8  24766343.023 8 130147989.99107  97188471.26908 105639626.59508  99723813.49808  98456147.45708        47.000          48.500          50.250          49.500          52.000
G06  21603032.480 7                  21603032.378 6  21603037.689 7  21603037.009 6  21603038.994 8 113524881.20007                  88461059.93607  88461057.94206  84775208.03508        47.250                          39.500          45.250          39.500          50.500
G11  20674509.093 8  20674509.159 8  20674508.879 7  20674511.034 8  20674510.645 7  20674515.442 9 108645507.39408 108645496.39608  84658962.45508  84658960.45107  81131542.98109        49.500          49.500          45.500          50.250          45.500          54.750
G12  20164585.168 8                  20164584.824 8  20164586.003 8  20164585.583 8                 105965712.81908                  82570741.12508  82570735.12508                        51.750                          49.750          49.250          49.750
G19  23616689.717 6                  23616688.564 4                  23616694.497 4                 124106595.48406                                  96706483.02204                        38.250                          24.000                          24.000
G20  23182847.785 6                  23182846.757 4                  23182851.961 4                 121826798.88406                                  94930028.39604                        40.750                          24.500                          24.500
G24  24466114.790 6                  24466114.513 3  24466125.875 6  24466125.383 3  24466128.119 7 128570219.43806                 100184597.64906 100184587.65703  96010242.10207        36.750                          22.000          37.250          22.000          42.250
G25  20903412.328 8                  20903411.586 7  20903417.501 7  20903416.781 7  20903418.511 8 109848280.42108                  85596121.20907  85596126.19907  82029645.58508        48.250                          42.000          46.000          42.000          52.000
G28  24255880.955 3                                  24255880.002 3                  24255890.165 4                                                                  95185326.36904        22.500                                          23.500                          26.250
G29  24087275.234 6                  24087274.850 4  24087282.714 6  24087281.713 4                 126579543.01306                  98633463.74606  98633467.72904                        41.750                          27.250          36.750          27.250
R03  23538348.885 5  23538348.948 5  23538359.630 6  23538359.867 5                 126002677.17705 126002657.17505  98002122.93806  98002117.92305                        35.750          35.250          36.000          35.500
R04  24132521.612 5  24132522.954 5  24132536.172 5  24132536.119 5  24132524.501 5 129228632.99305 129228579.94605 100511162.58905 100511163.59505  96759951.10805        33.750          33.750          34.250          34.250          33.000
R09  21822600.137 7  21822601.282 7  21822610.542 7  21822610.793 7  21822598.354 7 116531467.20707 116531475.20607  90635606.67707  90635597.67707  87498204.95507        46.750          46.750          45.000          44.500          44.000
R10  19457966.603 8  19457966.169 8                                                 103722000.02308 103721997.02308                                                        49.000          48.500
R11  20738304.653 8  20738304.747 8  20738310.865 8  20738310.905 8  20738298.412 8 110819288.13508 110819287.14008  86192841.65508  86192826.64908  83150812.14108        52.250          52.750          49.250          49.500          48.250
R19  22516139.520 6  22516139.631 5  22516148.391 6  22516148.078 6                 120446255.72606 120446268.72705  93680551.95806  93680519.95906                        36.000          35.000          40.500          40.250
R20  19206062.031 6  19206062.076 7  19206071.156 7  19206070.588 7                 102703625.59206 102703605.60707  79880662.22907  79880697.22007                        41.750          42.000          45.250          45.500
R21  21766993.114 8  21766993.235 8  21767003.459 7  21767003.199 7  21766988.945 7 116479685.24408 116479667.24108  90595421.98407  90595417.97507  87275397.76607        49.750          49.500          45.250          45.000          43.750
> 2024 02 29 23 15 30.0000000  0 33
C06                  40488725.574 5                  40488731.055 6  40488731.255 6                 210835428.16005                 171321093.98006 163031376.10106                        34.000                          36.000          37.250
C12                  23770462.519 7                  23770467.530 8  23770467.838 8                 123779162.34407                 100580797.64608  95714004.00608                        44.750                          48.500          49.250
C16                  40423086.316 6                  40423092.646 6  40423096.934 7                 210493648.21206                 171043374.39106 162767101.29807                        37.750                          36.250          42.000
C19  26787239.204 5  26787238.157 6  26787252.457 6  26787245.609 6                 140767902.44705 139488199.91806 105118964.84806 113345635.13406                        33.500          36.000          38.000          38.000
C20  26235036.510 5  26235036.332 6  26235047.895 6  26235042.510 6                 137866068.62105 136612750.47506 102952006.66706 111009085.46406                        35.000          38.250          39.500          40.250
C24  22031093.175 8  22031091.038 8  22031095.572 8  22031094.989 8                 115774275.84308 114721765.91708  86454871.71808  93220886.60108                        50.750          52.500          52.750          53.750
C25  25378684.629 5  25378682.993 6  25378694.650 6  25378691.049 6                 133365895.64805 132153483.07006  99591459.83206 107385557.59406                        35.000          37.500          41.500          40.750
C26  23303243.600 7  23303241.240 8  23303250.701 7  23303249.068 8                 122459396.80007 121346123.36808  91446988.50107  98603711.17608                        47.000          49.000          47.500          49.250
C29  26020285.281 5  26020283.569 6  26020296.004 6  26020292.054 6                 136737555.24805 135494484.45306 102109275.71406 110100416.44806                        35.250          37.750          38.750          38.000
C34  26251240.014 5  26251238.270 6  26251257.355 6  26251252.734 6                 137951221.12705 136697118.91506 103015607.43206 111077669.03106                        35.500          37.500          40.000          40.250
C35  21761238.854 8  21761237.021 8  21761244.386 8  21761242.434 8                 114356228.44308 113316620.28408  85396000.77708  92079126.17908                        49.500          52.000          50.500          52.500
E13  23632553.864 8  23632561.028 8  23632556.149 9  23632557.752 8  23632559.153 9 124190124.47108  92739539.60908 100803780.43809  95158800.44908  93949178.60309        49.250          51.750          54.250          52.750          55.250
E15  24617301.065 7  24617309.562 8  24617305.157 8  24617306.264 8  24617307.669 8 129364953.60707  96603831.88308 105004108.77008  99123911.24108  97863877.63708        46.500          49.000          51.500          50.250          52.500
E21  23556782.571 8  23556788.849 8  23556786.551 9  23556785.614 8  23556786.952 9 123791822.24808  92442019.87508 100480423.17509  94853535.85408  93647784.43909        49.500          52.250          55.250          53.500          56.000
E26  26905351.761 6  26905364.550 6  26905361.044 7  26905361.744 7  26905363.028 7 141388636.66406 105582514.14706 114763574.78807 108336822.60207 106959677.94807        38.750          40.500          42.750          43.250          45.000
E27  24778095.490 7  24778103.418 8  24778100.575 8  24778099.736 8  24778101.288 8 130209779.73007  97234612.90008 105689780.56208  99771158.83208  98502890.94008        46.750          48.750          50.500          49.250          52.000
G06  21616194.835 7                  21616194.737 6  21616200.205 7  21616199.637 6  21616201.313 8 113594050.43407                  88514958.02807  88514956.02306  84826860.36108        47.250                          39.750          45.500          39.750          50.500
G11  20673175.002 8  20673175.014 8  20673174.788 7  20673176.965 8  20673176.567 7  20673181.373 9 108638496.58508 108638485.58408  84653499.50508  84653497.50207  81126307.65909        49.750          49.500          45.500          50.750          45.500          55.000
G12  20164397.918 8                  20164397.574 8  20164398.781 8  20164398.200 8                 105964728.48808                  82569974.12408  82569968.12708                        52.000                          49.750          49.500          49.750
G19  23635066.377 6                  23635065.206 3                  23635071.287 3                 124203165.40906                                  96781732.19903                        38.250                          23.250                          23.250
G20  23165619.727 6                  23165618.677 4                  23165623.684 4                 121736266.37806                                  94859483.80304                        41.250                          24.250                          24.250
G24  24486801.705 6                  24486801.451 3  24486812.173 6  24486812.262 3  24486815.678 7 128678928.46106                 100269305.81306 100269295.80003  96091420.68107        38.750                          23.250          37.500          23.250          43.750
G25  20891541.162 8                  20891540.420 7  20891546.260 7  20891545.365 7  20891547.256 8 109785895.92608                  85547509.96607  85547514.95507  81983059.82108        49.000                          42.250          46.250          42.250          52.250
G28  24242763.209 4                                  24242758.281 4                  24242762.850 5                                                                  95133814.55205        26.250                                          26.750                          30.750
G29  24069637.781 7                  24069637.401 4  24069643.173 6  24069643.768 4                 126486858.20507                  98561242.09306  98561246.07604                        43.500                          28.500          36.250          28.500
R03  23535415.215 4  23535414.110 4  23535430.297 6  23535429.237 6                 125986988.26204 125986968.24004  97989920.60906  97989915.63506                        28.500          27.250          37.500          37.000
R04  24115353.215 6  24115354.633 6  24115363.389 5  24115365.575 5  24115353.846 5 129136681.38606 129136628.38606 100439644.84905 100439645.84805  96691102.48005        39.750          38.500          35.750          35.750          33.500
R09  21845386.725 7  21845386.940 7  21845395.673 7  21845396.039 7  21845383.555 7 116653139.79807 116653147.80707  90730240.78207  90730231.78007  87589563.23807        47.750          47.250          44.750          44.500          44.000
R10  19465922.357 8  19465922.035 8                                                 103764409.30008 103764406.30708                                                        49.000          48.250
R11  20721797.774 8  20721797.770 8  20721803.660 8  20721803.642 8  20721792.168 8 110731081.18008 110731080.18908  86124236.30308  86124221.30608  83084628.09608        52.000          52.750          49.000          49.250          48.500
R19  22537672.689 6  22537672.112 5  22537681.730 6  22537681.006 6                 120561441.22306 120561454.24005  93770140.58106  93770108.57006                        36.500          35.000          40.250          40.250
R20  19207668.019 6  19207668.345 6  19207677.157 7  19207676.607 7                 102712214.22406 102712194.23606  79887342.28507  79887377.28307                        41.750          41.750          45.500          45.750
R21  21748026.763 8  21748027.147 8  21748036.919 7  21748037.076 7  21748023.130 7 116378195.74508 116378177.74908  90516486.01807  90516482.02007  87199354.54007        50.000          49.500          45.000          45.000          44.000
> 2024 02 29 23 16 00.0000000  0 33
C06                  40484018.967 5                  40484023.169 6  40484023.182 6                 210810913.85305                 171301174.19106 163012420.19406                        34.250                          36.000          37.500
C12                  23756239.025 7                  23756243.405 8  23756243.722 8                 123705094.20307                 100520611.29808  95656729.94008                        45.500                          48.500          49.500
C16                  40419232.810 6                  40419240.598 6  40419243.566 6                 210473585.98806                 171027072.23206 162751587.98006                        37.750                          37.500          41.500
C19  26772613.161 5  26772613.321 5  26772626.879 6  26772619.634 6                 140691043.30505 139412039.48705 105061570.26406 113283748.76606                        32.500          35.250          37.750          38.000
C20  26230177.529 5  26230177.493 6  26230188.529 6  26230181.806 6                 137840532.01405 136587446.02106 102932937.19306 110988523.58806                        35.000          38.000          39.000          39.000
C24  22029741.779 8  22029739.700 8  22029744.113 8  22029743.664 8                 115767173.98208 114714728.62508  86449568.40208  93215168.24008                        50.500          52.750          52.500          53.750
C25  25362369.820 5  25362368.662 6  25362379.899 6  25362377.129 7                 133280163.43905 132068530.25406  99527439.23506 107316526.61507                        34.000          37.000          40.750          42.250
C26  23318613.930 7  23318611.825 8  23318621.157 7  23318619.152 8                 122540167.50607 121426159.78508  91507304.20807  98668747.27008                        46.750          49.250          47.000          49.000
C29  26037720.884 5  26037719.851 6  26037732.291 6  26037726.888 6                 136829179.68605 135585275.86306 102177696.45206 110174191.88906                        34.500          39.000          38.500          36.250
C34  26233708.431 6  26233707.412 6  26233725.557 6  26233720.614 6                 137859093.54506 136605828.86606 102946811.12706 111003488.56806                        36.000          38.500          39.500          39.750
C35  21768056.987 8  21768055.047 8  21768062.411 8  21768060.500 8                 114392057.52708 113352123.65308  85422756.26608  92107975.58208                        49.250          51.750          50.000          52.500
E13  23625526.427 8  23625533.671 8  23625528.842 9  23625530.463 8  23625531.850 9 124153195.94408  92711963.16108 100773806.02309  95130504.61308  93921242.46109        49.250          51.750          54.000          53.000          55.500
E15  24627066.923 7  24627075.392 8  24627070.765 8  24627071.719 8  24627073.330 8 129416272.32507  96642154.29308 105045763.56508  99163233.36708  97902699.90508        46.250          49.000          51.250          50.000          52.750
E21  23553577.240 8  23553583.313 8  23553581.261 9  23553580.162 8  23553581.500 9 123774977.62208  92429441.11308 100466750.60409  94840628.95208  93635041.60709        49.250          52.250          55.000          53.500          56.000
E26  26887838.289 6  26887851.274 6  26887847.362 7  26887847.198 7  26887849.238 7 141296602.45106 105513787.52806 114688871.85607 108266303.09107 106890054.88507        38.250          41.500          43.000          42.500          45.000
E27  24789899.808 7  24789908.023 8  24789905.282 8  24789904.385 8  24789905.911 8 130271813.04707  97280936.42008 105740132.23808  99818690.80208  98549818.68608        46.500          48.750          50.250          49.250          52.000
G06  21629435.439 7                  21629435.328 6  21629441.269 7  21629440.903 6  21629442.699 8 113663634.11907                  88569179.05907  88569177.05906  84878822.17908        47.000                          39.250          45.250          39.250          50.250
G11  20671950.023 8  20671950.179 8  20671949.809 7  20671952.174 8  20671951.888 7  20671956.819 9 108632060.88408 108632049.88208  84648484.70208  84648482.69407  81121501.80609        50.000          49.750          45.500          50.500          45.500          55.000
G12  20164311.289 8                  20164310.950 8  20164311.924 8  20164311.423 8                 105964272.18608                  82569618.58208  82569612.58008                        52.500                          49.750          49.500          49.750
G19  23653460.347 6                  23653459.180 3                  23653464.639 3                 124299826.09206                                  96857052.10903                        38.750                          23.250                          23.250
G20  23148439.162 7                  23148438.080 4                  23148441.970 4                 121645978.42707                                  94789129.78304                        42.500                          24.750                          24.750
G24  24507495.940 6                  24507495.663 3  24507506.846 6  24507506.663 3  24507509.667 7 128787677.87006                 100354045.44606 100354035.44303  96172629.44007        39.500                          23.000          36.750          23.000          43.000
G25  20879749.923 8                  20879749.181 7  20879755.145 7  20879754.228 7  20879756.074 8 109723933.71508                  85499227.77807  85499232.76707  81936789.39608        49.250                          42.000          46.250          42.000          52.250
G28  24229708.382 3                                  24229724.623 4                  24229722.605 5                                                                  95082640.40905        23.750                                          25.000                          30.750
G29  24052021.546 7                  24052021.180 4  24052027.712 6  24052027.104 4                 126394285.36407                  98489107.66606  98489111.65504                        43.500                          28.750          37.000          28.750
R03  23532628.285 6  23532626.675 5  23532637.491 6  23532637.308 6                 125972040.78606 125972020.78505  97978294.99706  97978289.98006                        36.000          34.000          38.000          38.500
R04  24098252.907 6  24098253.395 6  24098266.645 6  24098266.363 6  24098255.680 5 129045116.91706 129045063.90506 100368428.18106 100368429.16606  96622543.72305        39.500          38.000          37.500          36.500          35.000
R09  21868232.875 7  21868233.157 7  21868242.377 7  21868242.198 7  21868230.125 7 116775136.51107 116775144.52207  90825126.95107  90825117.94907  87681164.90207        47.750          47.250          45.000          44.500          43.750
R10  19474015.086 8  19474014.898 8                                                 103807547.13008 103807544.13108                                                        48.750          48.500
R11  20705385.832 8  20705386.029 8  20705392.125 8  20705391.901 8  20705380.235 8 110643383.15308 110643382.15708  86056026.80108  86056011.79508  83018825.92308        52.250          52.500          48.500          49.000          48.000
R19  22559227.126 6  22559226.656 5  22559236.430 6  22559235.800 6                 120676742.94206 120676755.95605  93859819.53906  93859787.53206                        36.250          35.250          40.500          40.250
R20  19209390.514 7  19209390.313 6  19209398.973 7  19209398.566 7                 102721423.40807 102721403.42006  79894505.00307  79894540.00407                        42.250          41.750          45.000          45.500
R21  21729125.943 8  21729126.582 8  21729137.351 7  21729136.783 7  21729122.713 7 116277056.06608 116277038.07608  90437822.11107  90437818.10407  87123573.40307        50.000          49.750          45.750          45.750          44.250
> 2024 02 29 23 16 30.0000000  0 33
C06                  40479336.785 5                  40479342.006 6  40479342.139 6                 210786537.96405                 171281366.86806 162993571.28706                        33.750                          36.500          37.500
C12                  23742059.218 7                  23742063.375 8  23742063.545 8                 123631254.96407                 100460610.96008  95599632.86708                        45.750                          49.000          49.750
C16                  40415407.837 6                  40415416.247 6  40415417.784 6                 210453668.72306                 171010887.84506 162736186.71506                        38.000                          39.000          41.000
C19  26758022.318 5  26758020.829 5  26758034.798 6  26758028.635 6                 140614365.80305 139336059.06105 105004311.34906 113222008.63006                        33.250          35.250          37.500          39.000
C20  26225406.119 5  26225404.702 6  26225417.263 6  26225411.417 6                 137815460.24905 136562602.14706 102914214.81806 110968335.93706                        34.750          38.000          38.500          40.250
C24  22028485.771 8  22028483.822 8  22028488.450 8  22028487.661 9                 115760574.56708 114708189.20508  86444640.28208  93209854.43609                        50.500          52.750          52.500          54.000
C25  25346101.359 5  25346099.597 6  25346110.083 6  25346107.904 7                 133194668.03105 131983812.08706  99463595.46106 107247686.32507                        33.750          36.000          39.250          42.750
C26  23334043.957 7  23334041.668 8  23334050.968 7  23334049.031 8                 122621251.80307 121506506.95608  91567854.09107  98734035.86708                        46.750          49.000          47.000          49.250
C29  26055158.637 5  26055157.301 6  26055169.611 6  26055165.790 6                 136920814.59205 135676077.73706 102246125.04006 110247975.80406                        35.000          38.250          38.750          38.250
C34  26216192.356 6  26216190.710 6  26216209.455 6  26216204.964 6                 137767046.38906 136514618.52706 102878074.86806 110929372.85406                        36.500          38.750          39.750          41.000
C35  21774932.992 8  21774931.293 8  21774938.407 8  21774936.558 8                 114428191.37408 113387929.01208  85449739.33908  92137070.37508                        49.250          52.000          50.250          52.750
E13  23618571.144 8  23618578.348 8  23618573.506 9  23618575.077 8  23618576.482 9 124116645.34108  92684668.92608 100744138.36209  95102498.35308  93893592.21409        49.250          52.000          54.250          53.000          55.500
E15  24636889.700 7  24636897.933 8  24636893.600 8  24636894.559 8  24636896.089 8 129467891.05507  96680700.72708 105087661.87308  99202785.36808  97941749.12208        46.500          49.000          51.250          50.000          52.500
E21  23550430.693 8  23550436.770 8  23550434.718 9  23550433.763 8  23550435.034 9 123758442.87308  92417093.76108 100453329.55809  94827959.49108  93622533.20009        49.250          52.250          55.000          53.750          56.000
E26  26870347.890 6  26870360.061 6  26870356.350 7  26870355.940 7  26870358.115 7 141204687.17006 105445149.71106 114614265.46707 108195874.70007 106820521.78107        39.750          41.250          43.750          42.500          45.000
E27  24801750.725 7  24801758.851 8  24801756.020 8  24801755.570 8  24801756.886 8 130334089.95807  97327441.84008 105790681.63408  99866409.42008  98596930.70408        46.750          48.750          50.250          49.250          52.000
G06  21642755.552 7                  21642755.459 6  21642761.548 7  21642760.918 6  21642762.446 8 113733630.29707                  88623721.51107  88623719.50606  84931092.02608        46.750                          39.500          45.500          39.500          50.250
G11  20670835.020 8  20670835.085 8  20670834.806 7  20670836.817 8  20670836.696 7  20670841.614 9 108626200.47608 108626189.47808  84643918.17108  84643916.16707  81117125.55709        50.000          49.750          45.500          50.250          45.500          55.250
G12  20164325.003 8                  20164324.659 8  20164325.884 8  20164325.419 8                 105964345.25708                  82569675.52808  82569669.53108                        52.250                          49.750          49.250          49.750
G19  23671872.574 6                  23671871.430 3                  23671875.485 3                 124396576.87606                                  96932442.22403                        39.000                          22.750                          22.750
G20  23131304.441 6                  23131303.324 4                  23131307.776 4                 121555938.74006                                  94718969.18104                        41.750                          25.000                          25.000
G24  24528197.522 6                  24528197.254 3  24528208.812 6  24528207.739 3  24528211.736 7 128896465.41506                 100438814.76406 100438804.78103  96253866.66707        37.500                          22.000          37.250          22.000          43.000
G25  20868039.888 8                  20868039.142 7  20868044.860 7  20868043.983 7  20868046.209 8 109662396.35608                  85451276.65007  85451281.63107  81890836.23608        49.250                          42.250          46.000          42.250          52.500
G28  24216756.412 4                                  24216767.175 3                  24216767.049 5                                                                  95031805.95805        27.500                                          21.250                          30.250
G29  24034426.699 6                  24034426.319 4  24034432.078 6  24034432.744 4                 126301825.60306                  98417061.38406  98417065.37404                        41.750                          28.000          36.750          28.000
R03  23529971.354 5  23529971.832 5  23529982.143 5  23529983.551 6                 125957836.20905 125957816.20005  97967246.96305  97967241.97706                        35.500          34.500          35.250          36.000
R04  24081228.680 6  24081228.501 6  24081239.761 6  24081240.235 6  24081229.051 5 128953944.60706 128953891.61006 100297516.49306 100297517.53206  96554278.59505        39.750          38.250          37.750          37.000          34.750
R09  21891139.924 8  21891140.179 7  21891148.822 7  21891148.746 7  21891136.324 7 116897454.55708 116897462.56607  90920263.02507  90920254.03507  87773007.82707        48.000          47.250          45.000          44.250          43.750
R10  19482244.239 8  19482243.873 8                                                 103851413.17208 103851410.17608                                                        48.750          48.250
R11  20689070.773 8  20689071.126 8  20689076.699 8  20689076.779 8  20689064.268 8 110556198.13708 110556197.13808  85988216.31908  85988201.32408  82953408.67708        52.500          52.750          49.000          49.500          48.000
R19  22580802.525 6  22580803.151 5  22580811.883 6  22580811.691 6                 120792159.14506 120792172.15405  93949587.55806  93949555.56406                        36.250          35.250          39.750          40.500
R20  19211229.174 7  19211228.436 6  19211237.315 7  19211236.702 7                 102731252.47307 102731232.48906  79902149.84207  79902184.85007                        42.500          41.750          44.750          45.250
R21  21710291.499 8  21710291.446 8  21710301.338 7  21710301.571 7  21710287.809 7 116176268.27708 116176250.27608  90359431.85707  90359427.86307  87048055.88807        49.750          49.250          45.250          45.500          44.000
> 2024 02 29 23 17 00.0000000  0 33
C06                  40474680.130 5                  40474686.996 6  40474687.380 6                 210762299.97405                 171261671.55006 162974829.00206                        33.250                          36.500          37.750
C12                  23727922.554 7                  23727927.006 8  23727927.658 8                 123557644.34607                 100400796.41308  95542712.59708                        45.750                          48.750          49.750
C16                  40411611.433 6                  40411619.239 6  40411620.539 6                 210433895.88806                 170994820.83506 162720897.14506                        38.000                          39.250          40.250
C19  26743464.914 5  26743464.212 5  26743478.396 6  26743472.094 6                 140537871.54605 139260260.23705 104947189.25906 113160416.00706                        33.500          35.750          37.250          38.250
C20  26220722.934 5  26220721.946 6  26220734.985 6  26220729.238 6                 137790853.51805 136538219.10706 102895839.73006 110948522.80106                        35.250          37.500          37.750          40.500
C24  22027325.666 8  22027323.269 8  22027327.938 8  22027327.301 9                 115754477.18808 114702147.25608  86440087.07508  93204944.87709                        50.500          52.250          52.500          54.000
C25  25329875.458 5  25329876.044 6  25329885.949 6  25329883.215 6                 133109410.65905 131899329.80206  99399929.39006 107179037.67606                        32.750          37.500          38.750          41.750
C26  23349532.592 7  23349530.714 8  23349539.639 7  23349538.050 8                 122702647.03007 121587162.21908  91628636.15107  98799574.81008                        46.500          49.250          46.750          49.000
C29  26072598.062 5  26072596.046 6  26072608.884 6  26072605.381 6                 137012458.21005 135766888.22906 102314560.13606 110321766.71506                        33.750          36.750          38.500          38.750
C34  26198691.158 5  26198690.634 6  26198708.762 6  26198703.971 6                 137675079.49605 136423487.67706 102809398.53406 110855321.75206                        35.250          39.500          39.500          40.750
C35  21781866.505 8  21781865.128 8  21781872.072 8  21781870.224 8                 114464627.94508 113424034.34008  85476948.46808  92166408.90808                        49.000          52.250          50.000          52.750
E13  23611687.451 8  23611694.816 8  23611689.960 9  23611691.442 8  23611692.923 9 124080472.07508  92657656.47108 100714776.97609  95074781.22108  93866227.42009        49.500          52.000          54.000          53.250          55.750
E15  24646769.333 7  24646777.253 8  24646773.224 8  24646773.659 8  24646775.454 8 129519807.41407  96719469.42708 105129801.76008  99242565.42808  97981023.50208        46.750          49.000          51.250          50.000          52.500
E21  23547343.126 8  23547349.342 8  23547347.178 9  23547346.196 9  23547347.529 9 123742217.98508  92404977.79908 100440160.02409  94815527.45509  93610259.20109        49.500          52.250          55.000          54.000          56.250
E26  26852879.495 6  26852891.693 6  26852887.584 7  26852887.474 7  26852889.720 7 141112891.15706 105376600.93306 114539755.86507 108125537.65607 106751078.87007        40.500          41.250          42.750          42.250          44.750
E27  24813647.946 7  24813655.838 8  24813652.932 8  24813652.719 8  24813653.954 8 130396609.09307  97374128.15408 105841427.65008  99914313.63808  98644225.97008        46.750          48.500          50.000          49.750          52.250
G06  21656153.547 7                  21656153.454 6  21656159.521 7  21656158.537 6  21656160.365 8 113804035.62707                  88678582.76607  88678580.76806  84983667.39608        47.000                          39.500          45.750          39.500          50.250
G11  20669829.065 8  20669829.081 8  20669828.851 7  20669830.710 8  20669830.665 7  20669835.578 9 108620914.14608 108620903.14408  84639798.97108  84639796.97007  81113177.99909        50.000          49.250          45.750          50.250          45.750          55.000
G12  20164439.659 8                  20164439.315 8  20164440.517 8  20164439.963 8                 105964947.50008                  82570144.82408  82570138.82708                        52.250                          49.750          49.500          49.750
G19  23690299.553 6                  23690298.391 3                  23690303.362 3                 124493416.09206                                  97007901.23703                        37.750                          21.750                          21.750
G20  23114217.950 6                  23114216.859 4                  23114221.840 4                 121466149.23406                                  94649003.54104                        41.750                          25.500                          25.500
G24  24548905.775 6                  24548905.534 3  24548917.799 6  24548916.466 3  24548920.284 7 129005287.38106                 100523610.89706 100523600.91003  96335129.60207        36.750                          21.500          38.000          21.500          43.750
G25  20856410.752 8                  20856409.997 7  20856415.805 7  20856414.759 7  20856416.725 8 109601285.05008                  85403657.49207  85403662.48107  81845201.23708        49.250                          42.250          46.250          42.250          52.250
G28  24203888.427 5                                  24203894.352 4                  24203900.146 5                                                                  94981312.19405        31.000                                          26.500                          32.750
G29  24016853.127 6                  24016852.734 4  24016860.174 6  24016859.561 4                 126209478.84806                  98345103.13906  98345107.13304                        40.750                          28.000          38.500          28.000
R03  23527459.741 6  23527457.348 6  23527467.717 5  23527467.395 5                 125944374.62106 125944354.60806  97956776.77605  97956771.78805                        39.000          37.250          34.500          35.000
R04  24064276.136 6  24064276.266 6  24064287.047 6  24064287.481 6  24064276.503 5 128863167.97906 128863114.98306 100226912.56906 100226913.60106  96486309.67105        40.000          39.250          37.250          37.000          34.750
R09  21914104.870 7  21914105.604 7  21914114.564 7  21914115.052 7  21914102.219 7 117020089.83307 117020097.83907  91015645.85307  91015636.86207  87865088.94107        47.750          47.000          45.250          44.500          43.500
R10  19490609.848 8  19490609.307 8                                                 103896005.28108 103896002.28608                                                        49.000          48.250
R11  20672850.971 8  20672851.222 8  20672857.103 8  20672857.085 8  20672845.965 8 110469528.80308 110469527.81108  85920806.93008  85920791.93608  82888378.37308        52.000          52.500          48.750          49.000          48.750
R19  22602398.931 5  22602398.940 5  22602409.184 6  22602408.540 6                 120907685.90005 120907698.91705  94039441.57506  94039409.57606                        35.750          34.500          40.750          40.750
R20  19213181.559 7  19213181.863 6  19213191.020 7  19213190.425 7                 102741699.33107 102741679.33906  79910275.18907  79910310.19107                        42.250          41.750          45.250          45.750
R21  21691523.052 8  21691522.895 8  21691532.556 7  21691532.551 7  21691518.946 7 116075833.15308 116075815.15208  90281315.89407  90281311.90307  86972802.59007        50.250          49.750          45.500          45.500          44.250
> 2024 02 29 23 17 30.0000000  0 33
C06                  40470054.479 5                  40470059.902 6  40470060.679 6                 210738203.78905                 171242091.52306 162956196.39706                        33.250                          37.000          38.250
C12                  23713830.787 7                  23713835.727 8  23713836.428 8                 123484266.53007                 100341171.03708  95485972.35508                        45.500                          49.250          50.500
C16                  40407841.848 6                  40407850.383 6  40407851.679 6                 210414271.47506                 170978874.42606 162705722.32406                        37.500                          39.750          40.250
C19  26728944.775 5  26728943.098 5  26728958.431 6  26728951.677 6                 140461566.75505 139184649.13805 104890208.65806 113098975.93906                        32.500          35.250          37.250          37.750
C20  26216130.665 5  26216129.771 6  26216141.361 6  26216135.189 6                 137766716.52705 136514301.58406 102877815.47406 110929087.89106                        35.750          38.000          37.750          39.750
C24  22026261.833 8  22026259.294 8  22026263.971 8  22026263.236 9                 115748885.92608 114696606.82008  86435911.80708  93200442.83709                        50.500          52.500          52.500          54.000
C25  25313699.393 5  25313697.188 6  25313709.002 6  25313705.039 6                 133024397.01105 131815089.00306  99336445.30706 107110585.22806                        35.750          37.500          39.250          41.000
C26  23365081.548 7  23365079.022 8  23365088.265 7  23365086.309 8                 122784354.95807 121668127.34708  91689651.74107  98865365.55808                        46.750          48.750          46.750          49.000
C29  26090039.735 5  26090038.242 6  26090050.190 6  26090046.625 6                 137104113.12505 135857709.95106 102383003.66406 110395566.72706                        34.500          38.250          38.000          38.750
C34  26181206.977 6  26181205.268 6  26181223.857 6  26181219.182 6                 137583197.16306 136332440.63206 102740785.29906 110781338.70206                        37.750          39.250          39.750          40.500
C35  21788858.287 8  21788856.342 8  21788863.810 8  21788861.890 8                 114501369.68008 113460442.05908  85504385.48208  92195993.16708                        49.250          51.750          50.000          52.750
E13  23604876.618 8  23604883.840 8  23604878.850 9  23604880.372 8  23604881.893 9 124044679.98908  92630928.66108 100685724.99409  95047356.15908  93839150.98409        49.500          51.500          54.000          53.500          55.500
E15  24656705.714 7  24656713.562 8  24656709.498 8  24656710.291 8  24656711.839 8 129572023.49007  96758461.94308 105172184.93108  99282575.13808  98020524.61508        46.500          48.500          51.000          50.250          52.500
E21  23544315.522 8  23544321.747 8  23544319.341 9  23544318.484 9  23544319.832 9 123726307.44008  92393096.56508 100427245.63409  94803336.27909  93598222.99609        49.250          52.000          54.750          54.000          56.000
E26  26835434.673 6  26835447.721 6  26835442.418 7  26835443.024 7  26835444.912 7 141021219.19006 105308144.80106 114465346.92207 108055295.68407 106681729.81807        40.000          41.750          42.000          42.750          45.250
E27  24825591.629 7  24825599.571 8  24825596.616 8  24825596.331 8  24825597.692 8 130459373.55607  97420997.66708 105892372.79308  99962405.84308  98691706.83008        46.500          48.000          49.750          49.750          52.000
G06  21669629.705 7                  21669629.603 6  21669634.566 7  21669634.150 6  21669636.166 8 113874851.22207                  88733763.72407  88733761.72506  85036549.13408        47.500                          39.250          45.000          39.250          50.500
G11  20668932.828 8  20668932.908 8  20668932.618 7  20668934.626 8  20668934.429 7  20668939.503 9 108616205.13008 108616194.13408  84636129.63508  84636127.63007  81109661.55609        50.000          49.750          45.500          50.500          45.500          55.250
G12  20164655.820 8                  20164655.481 8  20164656.615 8  20164656.029 8                 105966083.24308                  82571029.83008  82571023.83108                        52.500                          49.750          49.500          49.750
G19  23708744.407 6                  23708743.245 3                  23708748.365 3                 124590346.15206                                  97083431.03803                        38.250                          21.750                          21.750
G20  23097180.251 6                  23097179.151 4                  23097184.204 4                 121376616.37706                                  94579237.88004                        41.750                          26.250                          26.250
G24  24569619.696 6                  24569619.446 3  24569631.586 6  24569631.563 3  24569635.185 7 129114144.64506                 100608434.56506 100608424.55403  96416418.86007        36.000                          21.000          37.000          21.000          43.500
G25  20844863.482 8                  20844862.731 7  20844868.611 7  20844867.936 7  20844869.813 8 109540605.49608                  85356374.77207  85356379.76007  81799888.63708        49.250                          42.500          46.500          42.500          52.500
G28  24191109.435 5                                  24191116.769 5                  24191120.913 5                                                                  94931163.42005        33.750                                          30.250                          35.750
G29  23999302.780 6                  23999302.396 4  23999308.905 6  23999308.883 4                 126117249.32406                  98273236.27206  98273240.25404                        41.000                          28.000          38.500          28.000
R03  23525081.994 7  23525082.852 6  23525091.786 6  23525092.354 5                 125931660.97007 125931640.97606  97946888.40806  97946883.41605                        42.000          40.750          36.000          35.750
R04  24047397.923 6  24047399.255 6  24047409.952 6  24047410.980 6  24047400.248 6 128772794.74106 128772741.74106 100156622.39406 100156623.39806  96418642.81106        39.500          38.500          37.500          37.750          36.000
R09  21937130.379 7  21937130.710 7  21937139.380 7  21937139.693 7  21937127.692 7 117143043.23507 117143051.24107  91111276.10707  91111267.11307  87957408.95307        47.500          46.750          44.500          44.000          43.500
R10  19499111.510 8  19499111.317 8                                                 103941325.60308 103941322.61308                                                        49.000          48.250
R11  20656729.835 8  20656729.853 8  20656736.361 8  20656736.226 8  20656724.686 8 110383382.89908 110383381.91108  85853804.63908  85853789.63508  82823740.81408        52.000          52.750          49.250          49.500          48.500
R19  22624017.462 5  22624016.474 5  22624027.160 6  22624025.797 6                 121023324.21805 121023337.24305  94129382.35406  94129350.34906                        35.750          34.500          41.000          40.750
R20  19215251.136 7  19215251.400 6  19215260.744 7  19215259.796 7                 102752764.74307 102752744.74406  79918881.62607  79918916.61907                        42.000          41.750          45.250          46.000
R21  21672820.900 8  21672821.257 8  21672830.730 7  21672830.587 7  21672816.601 7 115975756.07108 115975738.07808  90203478.37907  90203474.37107  86897817.55707        50.000          50.000          44.750          45.250          44.250
